rackTotCnt,stationName,parkingBikeTotCnt,shared,stationLatitude,stationLongitude,stationId,timestamp
15,102. 망원역 1번출구 앞,24,160,37.55564880,126.91062927,ST-4,2024-05-09 23:45:26
14,103. 망원역 2번출구 앞,4,29,37.55495071,126.91083527,ST-5,2024-05-09 23:45:26
13,104. 합정역 1번출구 앞,0,0,37.55073929,126.91508484,ST-6,2024-05-09 23:45:26
5,105. 합정역 5번출구 앞,0,0,37.55000687,126.91482544,ST-7,2024-05-09 23:45:26
12,106. 합정역 7번출구 앞,0,0,37.54864502,126.91282654,ST-8,2024-05-09 23:45:26
5,107. 신한은행 서교동지점,13,260,37.55751038,126.91850281,ST-9,2024-05-09 23:45:26
12,108. 서교동 사거리,0,0,37.55274582,126.91861725,ST-10,2024-05-09 23:45:26
10,111. 상수역 2번출구 앞,1,10,37.54787064,126.92353058,ST-15,2024-05-09 23:45:26
10,112. 극동방송국 앞,0,0,37.54920197,126.92320251,ST-16,2024-05-09 23:45:26
25,113. 홍대입구역 2번출구 앞,0,0,37.55743790,126.92382050,ST-18,2024-05-09 23:45:26
15,114. 홍대입구역 8번출구 앞,0,0,37.55706024,126.92442322,ST-20,2024-05-09 23:45:26
15,115. 마스타 빌딩 앞,2,13,37.55893326,126.92711639,ST-12,2024-05-09 23:45:26
23,117. 홍은사거리,21,91,37.59115982,126.94132996,ST-17,2024-05-09 23:45:26
9,118. 광흥창역 2번출구 앞,6,67,37.54773331,126.93176270,ST-19,2024-05-09 23:45:26
10,119. 서강나루 공원,39,390,37.54520798,126.93146515,ST-21,2024-05-09 23:45:26
5,120. 신수동 사거리,9,180,37.54524231,126.93411255,ST-22,2024-05-09 23:45:26
15,121. 마포소방서 앞,25,167,37.54976654,126.93317413,ST-23,2024-05-09 23:45:26
10,122. 신성기사식당 앞,1,10,37.54745865,126.93837738,ST-24,2024-05-09 23:45:26
20,123. 문화촌 공원,13,65,37.59432983,126.94738770,ST-25,2024-05-09 23:45:26
35,124. 서강대 정문 건너편,0,0,37.55113983,126.93698883,ST-26,2024-05-09 23:45:26
20,126. 서강대 후문 옆,4,20,37.55041122,126.94384766,ST-28,2024-05-09 23:45:26
9,127. 현대벤처빌 앞,1,11,37.55352020,126.93695068,ST-29,2024-05-09 23:45:26
20,128. 신촌역(2호선) 1번출구 옆,0,0,37.55549622,126.93634033,ST-30,2024-05-09 23:45:26
10,129. 신촌역(2호선) 6번출구 옆,0,0,37.55505371,126.93756866,ST-31,2024-05-09 23:45:26
10,130. 신촌역(2호선) 7번출구 앞,1,10,37.55485916,126.93615723,ST-32,2024-05-09 23:45:26
20,131. 증산2교,31,155,37.58417130,126.91110229,ST-33,2024-05-09 23:45:26
15,133. 해담는다리,42,280,37.58203125,126.90899658,ST-35,2024-05-09 23:45:26
8,134. 연세로 명물길,0,0,37.55789185,126.93807983,ST-36,2024-05-09 23:45:26
10,135. 명물길 원형무대 앞,7,70,37.55922699,126.93984222,ST-37,2024-05-09 23:45:26
10,137. 신촌기차역입구 교차로,2,20,37.55681229,126.94318390,ST-39,2024-05-09 23:45:26
10,138. 신촌동 제1공영주차장 앞,0,0,37.55917740,126.93452454,ST-40,2024-05-09 23:45:26
10,139. 연세대 정문 건너편,0,0,37.55986404,126.93441772,ST-43,2024-05-09 23:45:26
22,140. 이화여대 후문,0,0,37.56000900,126.94073486,ST-41,2024-05-09 23:45:26
10,141. 연대 대운동장 옆,0,0,37.56238174,126.93264771,ST-42,2024-05-09 23:45:26
11,142. 아현역 4번출구 앞,4,36,37.55720139,126.95566559,ST-200,2024-05-09 23:45:26
9,143. 공덕역 2번출구,1,11,37.54457855,126.95021820,ST-201,2024-05-09 23:45:26
10,144. 공덕역 8번출구,13,130,37.54357910,126.95132446,ST-202,2024-05-09 23:45:26
9,145. 공덕역 5번출구,11,122,37.54425049,126.95163727,ST-203,2024-05-09 23:45:26
12,146. 마포역 2번출구 뒤,8,67,37.53993607,126.94582367,ST-204,2024-05-09 23:45:26
7,147. 마포역 4번출구 뒤,13,186,37.53927231,126.94591522,ST-205,2024-05-09 23:45:26
11,148. 용강동 주민센터 앞,33,300,37.54234695,126.94302368,ST-206,2024-05-09 23:45:26
15,150. 서강대역 2번출구 앞,5,33,37.55295563,126.93434143,ST-207,2024-05-09 23:45:26
10,153. 성산2교 사거리,0,0,37.56469727,126.91261292,ST-210,2024-05-09 23:45:26
13,154. 마포구청역 ,30,231,37.56090927,126.90549469,ST-211,2024-05-09 23:45:26
15,155. 가좌역1 번출구 앞,2,13,37.56829453,126.91504669,ST-212,2024-05-09 23:45:26
10,156. 서울서부지방법원 앞,6,60,37.54933167,126.95491791,ST-213,2024-05-09 23:45:26
12,157. 애오개역 4번출구 앞,20,167,37.55300140,126.95668793,ST-214,2024-05-09 23:45:26
5,159. 이대역 4번 출구,0,0,37.55695343,126.94634247,ST-216,2024-05-09 23:45:26
13,160. 북아현동 가구거리,1,8,37.55754852,126.95938110,ST-217,2024-05-09 23:45:26
8,161. 무악재역1번 출구,1,13,37.58224487,126.95064545,ST-218,2024-05-09 23:45:26
15,162. 봉원고가차도 밑,12,80,37.56626129,126.94667053,ST-219,2024-05-09 23:45:26
6,163. 명지전문대학교 정문 앞,4,67,37.58369827,126.92496490,ST-220,2024-05-09 23:45:26
10,164. 북가좌1동 주민센터 ,0,0,37.57447815,126.91004944,ST-221,2024-05-09 23:45:26
20,165. 중앙근린공원,12,60,37.57513809,126.91394043,ST-222,2024-05-09 23:45:26
20,166. 가재울 초등학교,31,155,37.57381821,126.91923523,ST-223,2024-05-09 23:45:26
15,167. 연가초등학교 옆,8,53,37.57946014,126.91712952,ST-224,2024-05-09 23:45:26
10,169. 북가좌 삼거리,7,70,37.57300186,126.90779877,ST-226,2024-05-09 23:45:26
10,170. DMC파크뷰자이아파트 302동 앞,13,130,37.57311249,126.92244720,ST-227,2024-05-09 23:45:26
10,171. 임광빌딩 앞,1,10,37.56472397,126.96727753,ST-228,2024-05-09 23:45:26
8,173. 서대문역 8번출구 앞,1,13,37.56477737,126.96614838,ST-230,2024-05-09 23:45:26
20,175. 홍연2교옆,3,15,37.57806778,126.93088531,ST-231,2024-05-09 23:45:26
10,176. 명지대학교 도서관,5,50,37.58109665,126.92402649,ST-555,2024-05-09 23:45:26
8,177. 북가좌 초등학교,12,150,37.57763672,126.90965271,ST-345,2024-05-09 23:45:26
10,178. 증산3교 앞,17,170,37.57987595,126.90634918,ST-349,2024-05-09 23:45:26
14,179. 가좌역 4번출구 앞,0,0,37.56877518,126.91529846,ST-232,2024-05-09 23:45:26
10,180. 충정로역 7번출구 아래,2,20,37.55996704,126.96246338,ST-233,2024-05-09 23:45:26
15,181. 망원초록길 입구,18,120,37.55134201,126.90267181,ST-339,2024-05-09 23:45:26
9,182. 망원2빗물펌프장 앞,26,289,37.55136490,126.90306091,ST-340,2024-05-09 23:45:26
15,183. 하늘채코오롱아파트 건너편,20,133,37.56538773,126.91932678,ST-341,2024-05-09 23:45:26
8,184. 7번가피자 서교망원점,10,125,37.55894852,126.90775299,ST-342,2024-05-09 23:45:26
15,185. 마포 신수공원 앞,19,127,37.54254532,126.93429565,ST-343,2024-05-09 23:45:26
40,186. 월드컵공원,39,98,37.56396484,126.89820862,ST-344,2024-05-09 23:45:26
9,188. 홍은동 정원여중 입구,8,89,37.58638763,126.93512726,ST-346,2024-05-09 23:45:26
10,191. 서우빌딩,31,310,37.57889175,126.91073608,ST-347,2024-05-09 23:45:26
10,192. 연서어린이공원,8,80,37.57222748,126.92306519,ST-348,2024-05-09 23:45:26
10,194. 증산교 앞,5,50,37.57731628,126.90296936,ST-350,2024-05-09 23:45:26
10,195. 모래내고가차도 ,4,40,37.56765747,126.91780853,ST-351,2024-05-09 23:45:26
10,196. 연희교차로 인근,1,10,37.56612015,126.92589569,ST-352,2024-05-09 23:45:26
15,198. 충정2교,0,0,37.56213760,126.96377563,ST-354,2024-05-09 23:45:26
30,199. 서울 월드컵 경기장,19,63,37.56684494,126.89644623,ST-443,2024-05-09 23:45:26
22,200. 국회의원회관,0,0,37.52841568,126.91391754,ST-45,2024-05-09 23:45:26
15,201. 진미파라곤 앞,2,13,37.53123856,126.92133331,ST-46,2024-05-09 23:45:26
30,202. 국민일보 앞,3,10,37.52881622,126.92453003,ST-47,2024-05-09 23:45:26
15,203. 국회의사당역 3번출구 옆,2,13,37.52805710,126.91870117,ST-51,2024-05-09 23:45:26
13,204. 국회의사당역 5번출구 옆,0,0,37.52816391,126.91702271,ST-50,2024-05-09 23:45:26
20,205. 산업은행 앞,0,0,37.52626419,126.92050934,ST-52,2024-05-09 23:45:26
35,206. KBS 앞,0,0,37.52466583,126.91802216,ST-53,2024-05-09 23:45:26
46,207. 여의나루역 1번출구 앞,3,7,37.52715683,126.93190002,ST-73,2024-05-09 23:45:26
12,209. 유진투자증권빌딩 앞,0,0,37.52461243,126.92783356,ST-55,2024-05-09 23:45:26
19,213. KT앞,0,0,37.52190781,126.91895294,ST-59,2024-05-09 23:45:26
21,214. 금융감독원 앞,0,0,37.52302170,126.92083740,ST-60,2024-05-09 23:45:26
10,215. 여의도고교 앞,0,0,37.52483749,126.93490601,ST-64,2024-05-09 23:45:26
15,217. NH농협은행 앞,0,0,37.52207947,126.93036652,ST-66,2024-05-09 23:45:26
12,219. 롯데캐슬엠파이어 옆,0,0,37.52069473,126.92583466,ST-62,2024-05-09 23:45:26
30,220. 미성아파트 A동 앞,0,0,37.51936340,126.92604828,ST-63,2024-05-09 23:45:26
10,221. 여의도초교 앞,1,10,37.52267456,126.93778992,ST-67,2024-05-09 23:45:26
12,222. 시범아파트버스정류장 옆,7,58,37.51902008,126.93688965,ST-68,2024-05-09 23:45:26
20,223. 진주아파트상가 앞,2,10,37.51913071,126.93337250,ST-69,2024-05-09 23:45:26
20,224. 롯데캐슬 앞,2,10,37.52008820,126.93236542,ST-70,2024-05-09 23:45:26
26,225. 앙카라공원 앞,12,46,37.51758575,126.92961884,ST-71,2024-05-09 23:45:26
19,226. 샛강역 1번출구 앞,2,11,37.51776505,126.92841339,ST-72,2024-05-09 23:45:26
20,227. 양평2나들목 보행통로 입구,20,100,37.54466629,126.88835907,ST-277,2024-05-09 23:45:26
10,228. 선유도역 3번출구 앞,17,170,37.53845978,126.89450836,ST-278,2024-05-09 23:45:26
25,229. 양평1 보행육교 앞,4,16,37.53587341,126.89218140,ST-279,2024-05-09 23:45:26
13,230. 영등포구청역 1번출구,3,23,37.52463531,126.89621735,ST-413,2024-05-09 23:45:26
10,231. 남부고용노동지청 남측,0,0,37.52450562,126.89182281,ST-280,2024-05-09 23:45:26
20,232. 양평우림 이비즈센타 앞,29,145,37.52565002,126.88781738,ST-281,2024-05-09 23:45:26
10,233. 양평1동 YP센터 앞,0,0,37.52848816,126.89164734,ST-282,2024-05-09 23:45:26
10,235. 신길동 우리은행 옆,12,120,37.50456619,126.91023254,ST-284,2024-05-09 23:45:26
10,236. 문래동자이아파트 앞,4,40,37.51615524,126.89461517,ST-285,2024-05-09 23:45:26
20,237. 보라매 두산위브 건너편,28,140,37.49651337,126.91480255,ST-286,2024-05-09 23:45:26
10,238. 제2구민체육센타 앞,3,30,37.52638626,126.90275574,ST-287,2024-05-09 23:45:26
19,239. 유스호스텔 앞,4,21,37.52585220,126.90328217,ST-288,2024-05-09 23:45:26
10,240. 문래역 4번출구 앞,0,0,37.51873779,126.89557648,ST-289,2024-05-09 23:45:26
10,241. 신길우성1차아파트 앞 공원,13,130,37.50501633,126.89853668,ST-290,2024-05-09 23:45:26
15,242. 신길선원가와인아파트 앞,6,40,37.51093292,126.91022491,ST-291,2024-05-09 23:45:26
15,243. 이앤씨드림타워 앞,2,13,37.52708435,126.89138031,ST-292,2024-05-09 23:45:26
20,244. 영등포삼환아파트 앞,38,190,37.53007889,126.90570831,ST-293,2024-05-09 23:45:26
14,245. 삼성생명 당산사옥 앞,5,36,37.52826309,126.89662933,ST-294,2024-05-09 23:45:26
14,247. 당산역 10번출구 앞,0,0,37.53342056,126.90223694,ST-295,2024-05-09 23:45:26
10,248. 초원아파트 앞,1,10,37.53105545,126.92420959,ST-296,2024-05-09 23:45:26
16,249. 여의도중학교 옆,4,25,37.52434921,126.93611908,ST-297,2024-05-09 23:45:26
10,250. 대림아파트 사거리,13,130,37.50764084,126.92308044,ST-298,2024-05-09 23:45:26
10,251. 서울지방병무청 버스정류장,7,70,37.50449371,126.92195129,ST-299,2024-05-09 23:45:26
10,252. 보라매역4번출구,16,160,37.49982834,126.91994476,ST-300,2024-05-09 23:45:26
10,254. 도림신협 앞,19,190,37.50380325,126.90341949,ST-302,2024-05-09 23:45:26
15,255. 도림사거리,26,173,37.50657272,126.90113068,ST-303,2024-05-09 23:45:26
10,256. 동아에코빌입구,21,210,37.50947571,126.89929962,ST-304,2024-05-09 23:45:26
14,258. 신길역3번출구,15,107,37.51769257,126.91429901,ST-306,2024-05-09 23:45:26
17,259. 대방역6번출구,95,559,37.51359177,126.92593384,ST-307,2024-05-09 23:45:26
15,260. 여의도 마리나선착장 앞,0,0,37.53365707,126.91216278,ST-414,2024-05-09 23:45:26
12,262. 영문초등학교 사거리,9,75,37.51992798,126.88918304,ST-416,2024-05-09 23:45:26
12,263. 근로자회관 사거리,37,308,37.51715088,126.88862610,ST-417,2024-05-09 23:45:26
15,264. 교보생명보험 앞,7,47,37.52193069,126.89161682,ST-418,2024-05-09 23:45:26
11,265. 영등포유통상가 사거리,3,27,37.52113342,126.89653778,ST-419,2024-05-09 23:45:26
10,266. 영등포청과시장 사거리,5,50,37.52029419,126.90119171,ST-420,2024-05-09 23:45:26
10,267. 삼성화재 사옥 옆,0,0,37.53596115,126.89830017,ST-421,2024-05-09 23:45:26
6,268. 그랜드컨벤션센터 앞,0,0,37.53471756,126.90000153,ST-422,2024-05-09 23:45:26
10,270. 증권거래소후문교차로,1,10,37.52234268,126.92710114,ST-424,2024-05-09 23:45:26
10,271. 샛강생태공원방문자센터 앞,0,0,37.51896286,126.92161560,ST-425,2024-05-09 23:45:26
20,272. 당산육갑문,29,145,37.53533936,126.90367889,ST-426,2024-05-09 23:45:26
10,275. 신동아아파트,11,110,37.52269745,126.88568115,ST-1320,2024-05-09 23:45:26
10,276. 영등포로터리2,22,220,37.51828384,126.91263580,ST-1321,2024-05-09 23:45:26
10,278. 쌍용플레티넘오피스텔,19,190,37.50793076,126.89523315,ST-1323,2024-05-09 23:45:26
15,279. 영등포 푸르지오 아파트 B,10,67,37.51322937,126.90446472,ST-1353,2024-05-09 23:45:26
10,280. 양평동6차현대아파트 앞,24,240,37.53210068,126.89443970,ST-1539,2024-05-09 23:45:26
8,281. 대림신동아아파트 앞,1,13,37.49824142,126.89398193,ST-1540,2024-05-09 23:45:26
10,282. 신한은행 대림동지점,10,100,37.48752975,126.90487671,ST-1541,2024-05-09 23:45:26
15,283. 아크로타워 스퀘어(영등포시장),52,347,37.52251816,126.90721893,ST-1649,2024-05-09 23:45:26
16,284. 센트럴 푸르지오 시티 앞,1,6,37.51821136,126.90222931,ST-1650,2024-05-09 23:45:26
14,285. 콤텍시스템 앞,10,71,37.49985886,126.89723969,ST-1651,2024-05-09 23:45:26
12,286. 우성아파트 교차로,14,117,37.49457169,126.89974976,ST-1652,2024-05-09 23:45:26
10,287. 영등포전화국사거리 (서강어린이공원),18,180,37.52576828,126.90573883,ST-1653,2024-05-09 23:45:26
10,288. 쌍용예가(구청별관),5,50,37.52809906,126.89338684,ST-1677,2024-05-09 23:45:26
10,289. 대림3동사거리,26,260,37.49980927,126.89800262,ST-1697,2024-05-09 23:45:26
12,290. 새말소공원,29,242,37.53150940,126.89782715,ST-1698,2024-05-09 23:45:26
14,291. 문래동 하이테크 시티,0,0,37.51412964,126.89939117,ST-1699,2024-05-09 23:45:26
10,292. 영일 어린이공원,21,210,37.51012039,126.90406799,ST-1700,2024-05-09 23:45:26
15,293. 충북 미래관,49,327,37.52917099,126.90757751,ST-1701,2024-05-09 23:45:26
10,295.영등포공원 분수대 앞,4,40,37.51481247,126.91170502,ST-1967,2024-05-09 23:45:26
20,296.KT플라자 영등포점,19,95,37.52630234,126.90538025,ST-1968,2024-05-09 23:45:26
10,297.국회3문,1,10,37.52863693,126.91267395,ST-1969,2024-05-09 23:45:26
25,298.KBS 연구동 건너편,3,12,37.52750778,126.91429901,ST-1970,2024-05-09 23:45:26
10,299.여의도 순복음교회,1,10,37.53179169,126.92245483,ST-1971,2024-05-09 23:45:26
6,300. 정동사거리,0,0,37.56805038,126.96923065,ST-116,2024-05-09 23:45:26
20,301. 경복궁역 7번출구 앞,12,60,37.57579422,126.97145081,ST-117,2024-05-09 23:45:26
12,302. 경복궁역 4번출구 뒤,11,92,37.57594681,126.97406006,ST-118,2024-05-09 23:45:26
8,303. 광화문역 1번출구 앞,0,0,37.57176971,126.97466278,ST-119,2024-05-09 23:45:26
16,305. 종로구청 옆,0,0,37.57255936,126.97833252,ST-121,2024-05-09 23:45:26
11,307. 서울역사박물관 앞,0,0,37.56999969,126.97109985,ST-123,2024-05-09 23:45:26
31,308. 광화문 S타워 앞,0,0,37.56996918,126.97393799,ST-124,2024-05-09 23:45:26
13,309. 광화문역 6번출구 옆 B,0,0,37.56996155,126.97615814,ST-125,2024-05-09 23:45:26
8,310. 청계광장 옆,0,0,37.56887817,126.97747040,ST-126,2024-05-09 23:45:26
10,314. 국립현대미술관,0,0,37.57970810,126.98085785,ST-130,2024-05-09 23:45:26
8,316. 종각역 1번출구 앞,0,0,37.57039642,126.98178864,ST-132,2024-05-09 23:45:26
10,318. 광교사거리 남측,0,0,37.56863403,126.98231506,ST-134,2024-05-09 23:45:26
17,320. 을지로입구역 4번출구 앞,0,0,37.56622314,126.98358917,ST-136,2024-05-09 23:45:26
15,321. KEB 하나금융그룹 명동사옥 옆,0,0,37.56546402,126.98413849,ST-137,2024-05-09 23:45:26
10,322. 명동성당 앞,0,0,37.56447601,126.98696899,ST-138,2024-05-09 23:45:26
8,324. 신세계백화점 본점 앞,0,0,37.56134415,126.98050690,ST-140,2024-05-09 23:45:26
15,326. 안국역 5번출구 앞,0,0,37.57624054,126.98616028,ST-142,2024-05-09 23:45:26
10,327. 낙원상가 옆,0,0,37.57335663,126.98746490,ST-143,2024-05-09 23:45:26
11,328. 탑골공원 앞,0,0,37.57039642,126.98818970,ST-144,2024-05-09 23:45:26
8,329. 청계2가 사거리 옆,1,13,37.56848526,126.98788452,ST-145,2024-05-09 23:45:26
10,331. 을지로2가 사거리 북측,0,0,37.56638336,126.98720551,ST-147,2024-05-09 23:45:26
5,332. 을지로2가 사거리 남측,0,0,37.56599045,126.98779297,ST-148,2024-05-09 23:45:26
10,334. 종로3가역 2번출구 뒤,0,0,37.57059860,126.99179077,ST-150,2024-05-09 23:45:26
10,335. 종로3가역 15번출구 앞,0,0,37.57019424,126.99165344,ST-151,2024-05-09 23:45:26
8,336. 충무로역 6번출구 앞,0,0,37.56144714,126.99311066,ST-152,2024-05-09 23:45:26
5,337. 창경궁 입구,2,40,37.57897949,126.99647522,ST-153,2024-05-09 23:45:26
18,338. 세운스퀘어 앞,0,0,37.57095718,126.99712372,ST-154,2024-05-09 23:45:26
10,339. 종로4가 사거리,0,0,37.57106781,126.99819183,ST-155,2024-05-09 23:45:26
8,340. 혜화동 로터리,2,25,37.58562851,127.00067902,ST-156,2024-05-09 23:45:26
8,341. 혜화역 3번출구 뒤,1,13,37.58156967,127.00178528,ST-157,2024-05-09 23:45:26
22,342. 대학로 마로니에공원,0,0,37.57978439,127.00253296,ST-158,2024-05-09 23:45:26
6,343. 힐스테이트창경궁 아파트 앞,6,100,37.57561111,127.00469971,ST-159,2024-05-09 23:45:26
10,344. 성균관대 E하우스 앞,17,170,37.57419968,127.00659180,ST-160,2024-05-09 23:45:26
18,345. 서울보증보험본사 앞,1,6,37.57330704,127.00070953,ST-161,2024-05-09 23:45:26
10,346. 맥스타일 앞,1,10,37.56918335,127.00988007,ST-162,2024-05-09 23:45:26
18,347. 동대문역사문화공원역 9번출구 앞,3,17,37.56533051,127.00784302,ST-163,2024-05-09 23:45:26
14,348. 독립문역 사거리,7,50,37.57202911,126.96078491,ST-183,2024-05-09 23:45:26
5,349. 어린이도서관,0,0,37.57633209,126.96858978,ST-165,2024-05-09 23:45:26
5,351. 청운초교 앞 삼거리,5,100,37.58496857,126.97041321,ST-167,2024-05-09 23:45:26
10,352. 중앙고입구 삼거리,0,0,37.58341599,126.98523712,ST-168,2024-05-09 23:45:26
8,353. 재동초교 앞 삼거리,0,0,37.57938766,126.98494720,ST-169,2024-05-09 23:45:26
10,354. 포르투갈 대사관 앞,8,80,37.57915497,126.98896027,ST-170,2024-05-09 23:45:26
15,355. 서울사대부설초등학교 앞,1,7,37.57650757,127.00245667,ST-171,2024-05-09 23:45:26
15,356. KT혜화지사 앞,1,7,37.57714462,127.00205994,ST-172,2024-05-09 23:45:26
13,358. 성균관대입구 사거리 A,0,0,37.58250046,126.99853516,ST-173,2024-05-09 23:45:26
8,359. 원남동사거리,3,38,37.57606125,126.99768066,ST-174,2024-05-09 23:45:26
10,361. 동묘앞역 1번출구 뒤,10,100,37.57324219,127.01590729,ST-175,2024-05-09 23:45:26
10,362. 청계8가사거리 A,26,260,37.57219696,127.02304077,ST-176,2024-05-09 23:45:26
13,363. 신설동역 11번출구 뒤,11,85,37.57559204,127.02285004,ST-177,2024-05-09 23:45:26
8,364. 창신역 1번출구 앞,12,150,37.57933426,127.01508331,ST-178,2024-05-09 23:45:26
13,367. 독립문역 3-1번출구 ,33,254,37.57415771,126.95851898,ST-180,2024-05-09 23:45:26
15,368. SK 서린빌딩 앞,0,0,37.56924820,126.98053741,ST-181,2024-05-09 23:45:26
23,370. 시청역(2호선) 9번출구 뒤,1,4,37.56322861,126.97483826,ST-185,2024-05-09 23:45:26
10,371. 동대입구역 6번출구 뒤,0,0,37.55887222,127.00553894,ST-186,2024-05-09 23:45:26
10,372. 약수역 3번출구 뒤,3,30,37.55429459,127.01119995,ST-187,2024-05-09 23:45:26
12,374. 청구역 2번출구 앞,11,92,37.56047440,127.01407623,ST-189,2024-05-09 23:45:26
7,379. 서울역9번출구,2,29,37.55599976,126.97335815,ST-194,2024-05-09 23:45:26
8,380. CJ제일제당 앞,1,13,37.56386566,127.00274658,ST-195,2024-05-09 23:45:26
15,381. 장충체육관,0,0,37.55853271,127.00698853,ST-196,2024-05-09 23:45:26
7,382. 약수역 10번출구 앞,3,43,37.55519867,127.01004791,ST-197,2024-05-09 23:45:26
27,383. 신당역 12번 출구 뒤,11,41,37.56584930,127.01640320,ST-198,2024-05-09 23:45:26
10,384. 종로학원본원 ,5,50,37.55978012,126.96850586,ST-199,2024-05-09 23:45:26
10,385. 종각역 5번출구,1,10,37.56983566,126.98265839,ST-336,2024-05-09 23:45:26
10,387. 훈련원공원주차장 앞,0,0,37.56699371,127.00346375,ST-338,2024-05-09 23:45:26
10,388. 동성중학교 앞,0,0,37.58573532,127.00160980,ST-444,2024-05-09 23:45:26
10,389. 을지로4가역 1번출구,0,0,37.56673050,126.99660492,ST-943,2024-05-09 23:45:26
12,390. 충무로역 1번출구,0,0,37.56138992,126.99535370,ST-944,2024-05-09 23:45:26
12,393. 동대문역 8번 출구,1,8,37.57014084,127.00937653,ST-1372,2024-05-09 23:45:26
15,394. 경희궁 자이 3단지,0,0,37.56748962,126.96591949,ST-1373,2024-05-09 23:45:26
8,395. 경희궁 자이 2단지,3,38,37.56885529,126.96456146,ST-1374,2024-05-09 23:45:26
13,397. 종묘공영주차장 건너편,0,0,37.57048035,126.99663544,ST-1432,2024-05-09 23:45:26
8,398. 을지로3가역 3번출구,0,0,37.56655884,126.99243927,ST-1435,2024-05-09 23:45:26
15,399. 서울역 센트럴 자이아파트,5,33,37.55410767,126.96540833,ST-1436,2024-05-09 23:45:26
14,400. 상암한화오벨리스크 1차 앞,18,129,37.58752441,126.88300323,ST-110,2024-05-09 23:45:26
13,401. 상암월드컵파크 10단지 앞,10,77,37.58618927,126.88161469,ST-76,2024-05-09 23:45:26
20,402. 상암월드컵파크 9단지 앞,13,65,37.58292770,126.87983704,ST-77,2024-05-09 23:45:26
20,403. 부엉이공원 앞,0,0,37.58559036,126.88472748,ST-78,2024-05-09 23:45:26
8,405. DMC빌 앞,0,0,37.58265686,126.88578796,ST-80,2024-05-09 23:45:26
15,406. 상암월드컵파크 7단지 앞,18,120,37.58111191,126.88087463,ST-81,2024-05-09 23:45:26
8,407. 마포구 육아종합지원센터,17,213,37.58063126,126.88367462,ST-83,2024-05-09 23:45:26
14,408. LG CNS앞,1,7,37.58081055,126.88665009,ST-84,2024-05-09 23:45:26
30,409. 누리꿈스퀘어 옆,0,0,37.57939911,126.88916016,ST-86,2024-05-09 23:45:26
10,410. 상암중학교 옆,3,30,37.57739258,126.88747406,ST-88,2024-05-09 23:45:26
10,411. DMC홍보관,2,20,37.57799530,126.89147186,ST-90,2024-05-09 23:45:26
21,412. DMC산학협력연구센터 앞,2,10,37.57565689,126.89079285,ST-91,2024-05-09 23:45:26
10,413. 상암월드컵파크 3단지 후문,4,40,37.57147598,126.88968658,ST-92,2024-05-09 23:45:26
8,414. 상암동주민센터 옆,2,25,37.57822037,126.89447021,ST-94,2024-05-09 23:45:26
10,415. DMC역 9번출구 앞,1,10,37.57746887,126.89736176,ST-95,2024-05-09 23:45:26
12,416. 상암월드컵파크 1단지 교차로,0,0,37.57566452,126.89444733,ST-96,2024-05-09 23:45:26
20,417. DMC역 2번출구 옆,3,15,37.57506943,126.89991760,ST-93,2024-05-09 23:45:26
20,418. 월드컵경기장역 3번출구 옆,1,5,37.57048035,126.89889526,ST-89,2024-05-09 23:45:26
21,419. 홈플러스 마포점 앞,1,5,37.56842041,126.89942932,ST-87,2024-05-09 23:45:26
37,420. 서울시 공공자전거 상암센터,26,70,37.56624603,126.89617920,ST-85,2024-05-09 23:45:26
8,421. 마포구청 앞,7,88,37.56574631,126.90186310,ST-82,2024-05-09 23:45:26
9,422. 문화비축기지,6,67,37.56897736,126.89440155,ST-968,2024-05-09 23:45:26
15,424. 롯데하이마트 (상암월드컵점),2,13,37.57361984,126.89804840,ST-990,2024-05-09 23:45:26
10,425. DMC첨단산업센터,0,0,37.58450317,126.88559723,ST-991,2024-05-09 23:45:26
10,426. 서울신용보증재단,6,60,37.54906082,126.95417786,ST-992,2024-05-09 23:45:26
10,427. 성산시영아파트,10,100,37.56958389,126.90381622,ST-1397,2024-05-09 23:45:26
10,428. 명보사거리,0,0,37.56439972,126.99143219,ST-1437,2024-05-09 23:45:26
8,429. 송도병원,1,13,37.54988861,127.00734711,ST-1438,2024-05-09 23:45:26
6,430. 장충동먹자골목 앞,2,33,37.56212616,127.00625610,ST-1439,2024-05-09 23:45:26
25,431. 청계천 영도교,21,84,37.57101440,127.01974487,ST-1440,2024-05-09 23:45:26
10,432. 마포중앙도서관,10,100,37.56333923,126.90820312,ST-1494,2024-05-09 23:45:26
12,433. 을지로입구역 2번출구,0,0,37.56634521,126.98229218,ST-1668,2024-05-09 23:45:26
10,434. 신당 래미안 버스정류장,0,0,37.56148911,127.02393341,ST-1669,2024-05-09 23:45:26
10,435. SK 남산빌딩,0,0,37.55686188,126.97561646,ST-1670,2024-05-09 23:45:26
10,436. 이대역 5번출구,0,0,37.55659103,126.94618988,ST-1675,2024-05-09 23:45:26
12,437. 대흥역 1번출구,2,17,37.54846954,126.94092560,ST-1691,2024-05-09 23:45:26
15,438. 성산2-1 공영주차장,10,67,37.56472015,126.90676880,ST-1692,2024-05-09 23:45:26
15,440. 하늘공원 입구,1,7,37.57012177,126.88134766,ST-1754,2024-05-09 23:45:26
15,441.염천교사거리,0,0,37.55989075,126.97149658,ST-1761,2024-05-09 23:45:26
13,442.서울역 서부,0,0,37.55641556,126.96919250,ST-1768,2024-05-09 23:45:26
9,443.호암아트홀,0,0,37.56211090,126.97071838,ST-1769,2024-05-09 23:45:26
15,445.대한상공회의소,0,0,37.56015396,126.97410583,ST-1771,2024-05-09 23:45:26
13,446. 상명대입구,20,154,37.60012817,126.95783234,ST-938,2024-05-09 23:45:26
6,447. 신영동삼거리,8,133,37.60399246,126.96194458,ST-939,2024-05-09 23:45:26
10,449. 일성아파트,14,140,37.60871887,126.97286224,ST-941,2024-05-09 23:45:26
51,450. 효자동 삼거리,15,29,37.58360291,126.97254944,ST-978,2024-05-09 23:45:26
8,451. 청와대앞길,2,25,37.58351517,126.97966766,ST-979,2024-05-09 23:45:26
13,452. 동대문 종합시장 버스정류장,0,0,37.57123947,127.00440979,ST-1605,2024-05-09 23:45:26
10,453. 종로오가 지하쇼핑센터 14번출구,0,0,37.57114029,127.00067139,ST-1606,2024-05-09 23:45:26
13,454. 종로2가 버스정류장 (종각방향),0,0,37.57035828,126.98638153,ST-1607,2024-05-09 23:45:26
8,455. 종로6가역 버스정류장(동대문 방향),0,0,37.57096100,127.00605774,ST-1608,2024-05-09 23:45:26
10,456. 숭인2동 주민센터 입구,17,170,37.57447052,127.01982880,ST-1609,2024-05-09 23:45:26
10,457. 종로꽃시장 입구 옆,0,0,37.57131958,127.00720978,ST-1610,2024-05-09 23:45:26
21,458. 광화문역 5번출구,0,0,37.56989288,126.97756958,ST-1611,2024-05-09 23:45:26
10,461. 서울지방경찰청,0,0,37.57436371,126.97236633,ST-1619,2024-05-09 23:45:26
10,462. 신영동삼거리(북악터널방향),0,0,37.60351181,126.96206665,ST-1752,2024-05-09 23:45:26
10,464. 삼청동 골목,2,20,37.58419037,126.98169708,ST-1756,2024-05-09 23:45:26
5,465. 삼청공원 앞,0,0,37.58760452,126.98359680,ST-1759,2024-05-09 23:45:26
13,466.롯데호텔,0,0,37.56584167,126.97981262,ST-1772,2024-05-09 23:45:26
11,467.한국은행,0,0,37.56221390,126.98086548,ST-1773,2024-05-09 23:45:26
8,468.웨스틴 조선호텔,0,0,37.56415939,126.97948456,ST-1774,2024-05-09 23:45:26
11,469.회현역 1번출구,1,9,37.55923080,126.98014069,ST-1775,2024-05-09 23:45:26
13,470.회현역 7번출구,0,0,37.55974579,126.98000336,ST-1776,2024-05-09 23:45:26
10,471.회현사거리 남측,0,0,37.56035995,126.98265076,ST-1777,2024-05-09 23:45:26
12,472.삼일교(시그니쳐 타워),0,0,37.56787109,126.98840332,ST-1778,2024-05-09 23:45:26
20,473.을지로4가역 9번출구,2,10,37.56605148,126.99798584,ST-1779,2024-05-09 23:45:26
40,474.동대문역사문화공원역 1번출구 뒤편,7,18,37.56629944,127.00849152,ST-1780,2024-05-09 23:45:26
21,475.DDP 패션몰,11,52,37.56764984,127.01181030,ST-1781,2024-05-09 23:45:26
10,476.광희문,3,30,37.56443024,127.00995636,ST-1782,2024-05-09 23:45:26
10,477.앰배서더 호텔 주변,0,0,37.55928802,127.00268555,ST-1783,2024-05-09 23:45:26
8,479.동대입구역 3번 출구,0,0,37.55937576,127.00602722,ST-1785,2024-05-09 23:45:26
8,480.약수역 6번 출구,1,13,37.55432129,127.01070404,ST-1786,2024-05-09 23:45:26
12,483.남산타운아파트 버스정류장,3,25,37.54758453,127.00643921,ST-1789,2024-05-09 23:45:26
12,484.도동삼거리,0,0,37.55614853,126.97742462,ST-1790,2024-05-09 23:45:26
10,485.서울역5번출구,1,10,37.55677032,126.97319794,ST-1791,2024-05-09 23:45:26
5,486. 평창동주민센터 앞,9,180,37.60627365,126.96832275,ST-2019,2024-05-09 23:45:26
15,487.신석초교앞 교차로 교통섬,36,240,37.54364014,126.93830872,ST-2146,2024-05-09 23:45:26
10,488.푸르메병원,15,150,37.58456802,126.88021088,ST-2147,2024-05-09 23:45:26
10,489.구룡근린공원,0,0,37.58320236,126.88276672,ST-2148,2024-05-09 23:45:26
23,490.가온문화공원,1,4,37.58207703,126.88766479,ST-2149,2024-05-09 23:45:26
10,491.월드컵파크 4단지,0,0,37.57597733,126.88806915,ST-2150,2024-05-09 23:45:26
7,493.홍대입구역 6번출구,2,29,37.55657578,126.92885590,ST-2152,2024-05-09 23:45:26
5,494.신수동주민센터,7,140,37.54724503,126.93502808,ST-2153,2024-05-09 23:45:26
10,495.염리초등학교 앞,9,90,37.54243088,126.94699860,ST-2154,2024-05-09 23:45:26
25,497.합정동주민센터 앞,0,0,37.55175400,126.91230011,ST-2156,2024-05-09 23:45:26
10,498.연남동주민센터 앞,9,90,37.56465149,126.92212677,ST-2157,2024-05-09 23:45:26
7,500. 어린이대공원역 3번출구 앞,3,43,37.54706955,127.07427216,ST-97,2024-05-09 23:45:26
30,501. 광진구의회 앞,12,40,37.53730774,127.07035065,ST-98,2024-05-09 23:45:26
12,505. 자양사거리 광진아크로텔 앞,12,100,37.53701019,127.08224487,ST-102,2024-05-09 23:45:26
7,506. 금호 어울림 아파트 앞,0,0,37.54906082,127.05779266,ST-103,2024-05-09 23:45:26
10,508. 성수아카데미타워 앞,2,20,37.54516602,127.05751038,ST-105,2024-05-09 23:45:26
15,510. 뚝도아리수정수센터 버스정류소 옆,10,67,37.54122162,127.04380035,ST-107,2024-05-09 23:45:26
16,511. 서울숲역 5번 출구 옆,0,0,37.54458237,127.04460907,ST-108,2024-05-09 23:45:26
15,512. 뚝섬역 1번 출구 옆,0,0,37.54856110,127.04500580,ST-109,2024-05-09 23:45:26
13,513. 뚝섬역 5번 출구 정류소 옆,0,0,37.54630661,127.04980469,ST-111,2024-05-09 23:45:26
12,514. 성수사거리 버스정류장 앞,1,8,37.54257965,127.06330872,ST-112,2024-05-09 23:45:26
15,515. 광양중학교 앞,2,13,37.53023529,127.08683014,ST-113,2024-05-09 23:45:26
10,516. 광진메디칼 앞,15,150,37.54840469,127.06936646,ST-114,2024-05-09 23:45:26
20,518. 청계천 박물관 앞,5,25,37.57152557,127.03535461,ST-234,2024-05-09 23:45:26
20,519. 양지사거리,9,45,37.56699371,127.02991486,ST-235,2024-05-09 23:45:26
7,520. 상왕십리역 4번 출구 앞,2,29,37.56385803,127.03031921,ST-236,2024-05-09 23:45:26
14,521. 왕십리역 11번 출구 앞,1,7,37.56144714,127.03491974,ST-237,2024-05-09 23:45:26
9,522. 금호역 1번출구 앞,15,167,37.54864120,127.01642609,ST-238,2024-05-09 23:45:26
7,523. 옥수동성당 옆,13,186,37.54366302,127.01406097,ST-239,2024-05-09 23:45:26
10,524. 래미안금호하이리버 아파트 102동 옆,25,250,37.55220032,127.02505493,ST-240,2024-05-09 23:45:26
20,525. 한양대병원사거리,0,0,37.55805206,127.04035187,ST-241,2024-05-09 23:45:26
10,526. 용답토속공원 앞,1,10,37.56351089,127.05672455,ST-242,2024-05-09 23:45:26
8,529. 장한평역 8번 출구 앞,4,50,37.56137085,127.06365967,ST-243,2024-05-09 23:45:26
9,530. 청계벽산아파트 앞,29,322,37.56874847,127.03040314,ST-244,2024-05-09 23:45:26
7,533. 금남시장 교차로,9,129,37.54814911,127.02108765,ST-245,2024-05-09 23:45:26
10,534. 금호사거리,10,100,37.54863358,127.02572632,ST-246,2024-05-09 23:45:26
11,535. 응봉삼거리,13,118,37.55398560,127.03359222,ST-247,2024-05-09 23:45:26
8,536. 행당역 2번출구 앞,6,75,37.55735016,127.02921295,ST-248,2024-05-09 23:45:26
10,537. 한양대후문역 부근,4,40,37.56035614,127.04139709,ST-249,2024-05-09 23:45:26
15,538. 답십리역 8번출구 앞,17,113,37.56764984,127.05115509,ST-250,2024-05-09 23:45:26
10,539. 군자교교차로,0,0,37.55979538,127.07420349,ST-252,2024-05-09 23:45:26
8,540. 군자역 7번출구 베스트샵 앞,10,125,37.55603027,127.07864380,ST-253,2024-05-09 23:45:26
19,542. 강변역 4번출구 뒤,1,5,37.53582382,127.09416199,ST-254,2024-05-09 23:45:26
20,543. 구의공원(테크노마트 앞),1,5,37.53596878,127.09467316,ST-255,2024-05-09 23:45:26
10,544. 광남중학교,16,160,37.54072952,127.10290527,ST-256,2024-05-09 23:45:26
8,546. 잠실대교북단 교차로,21,263,37.53247833,127.08509064,ST-257,2024-05-09 23:45:26
20,548. 자양나들목,26,130,37.52976990,127.07485962,ST-258,2024-05-09 23:45:26
10,549. 아차산역 3번출구,11,110,37.55122375,127.08970642,ST-259,2024-05-09 23:45:26
20,550. 서울시설공단 앞,5,25,37.57164001,127.03565979,ST-251,2024-05-09 23:45:26
13,551. 구의삼성쉐르빌 앞,37,285,37.54006195,127.09449768,ST-377,2024-05-09 23:45:26
9,552. 대림아크로리버 앞,27,300,37.53657913,127.09297180,ST-378,2024-05-09 23:45:26
9,555. 구의3동주민센터,2,22,37.53784943,127.09217072,ST-381,2024-05-09 23:45:26
14,556. 달맞이공원,0,0,37.54205322,127.02040100,ST-357,2024-05-09 23:45:26
10,557. 도선동 주민센터 앞,16,160,37.56764221,127.02569580,ST-358,2024-05-09 23:45:26
20,558. 성동광진 교육지원청 앞,12,60,37.56460571,127.03652191,ST-359,2024-05-09 23:45:26
13,559. 왕십리역 4번 출구 건너편,4,31,37.56109619,127.03679657,ST-360,2024-05-09 23:45:26
8,560. 비전교회 앞,18,225,37.55120468,127.06893158,ST-361,2024-05-09 23:45:26
10,561. 서울숲역 2번출구 앞,1,10,37.54281616,127.04467010,ST-362,2024-05-09 23:45:26
10,562. 군자지하보도 앞,14,140,37.55924606,127.07341003,ST-363,2024-05-09 23:45:26
10,563. 성동세무서 건너편,0,0,37.54791260,127.06275177,ST-364,2024-05-09 23:45:26
10,564. 금호역 3번출구,7,70,37.54792786,127.01557159,ST-365,2024-05-09 23:45:26
19,565. 옥수역 3번출구,34,179,37.54136658,127.01776123,ST-366,2024-05-09 23:45:26
15,567. 성수역 2번출구 앞,0,0,37.54459000,127.05708313,ST-368,2024-05-09 23:45:26
14,568. 청계8가 사거리 B,17,121,37.57110214,127.02355957,ST-369,2024-05-09 23:45:26
10,569. 응봉현대아파트 정류소,6,60,37.54958344,127.03024292,ST-370,2024-05-09 23:45:26
20,571. 세종대학교 대양AI센터,1,5,37.55039597,127.07585907,ST-382,2024-05-09 23:45:26
10,573. 구의문주차장 앞,5,50,37.54523087,127.08473206,ST-384,2024-05-09 23:45:26
22,574. 아차산역4번출구,19,86,37.55184937,127.08898163,ST-385,2024-05-09 23:45:26
10,575. 대원중고교 입구(대하빌딩),3,30,37.56429291,127.08693695,ST-386,2024-05-09 23:45:26
10,576. 광나루역 3번 출구,35,350,37.54483032,127.10426331,ST-387,2024-05-09 23:45:26
10,577. 광진청소년수련관,28,280,37.54654694,127.10613251,ST-388,2024-05-09 23:45:26
8,578. 성동세무서 부근,4,50,37.54829025,127.06246185,ST-371,2024-05-09 23:45:26
8,579. 마장역 4번출구,9,113,37.56520462,127.04184723,ST-372,2024-05-09 23:45:26
10,582. 경일중학교 앞,0,0,37.54317856,127.04907990,ST-375,2024-05-09 23:45:26
25,583. 청계천 생태교실 앞,49,196,37.56797028,127.04689026,ST-376,2024-05-09 23:45:26
20,584. 광진광장 교통섬,1,5,37.54782867,127.07263184,ST-445,2024-05-09 23:45:26
9,585. 성수2가1동 공영주차장 인근,24,267,37.53680801,127.05548859,ST-446,2024-05-09 23:45:26
10,586. 마장동 주민센터,16,160,37.56594086,127.04539490,ST-447,2024-05-09 23:45:26
10,587. 유니베라 앞,1,10,37.54541779,127.05264282,ST-482,2024-05-09 23:45:26
20,588. 뚝섬 유원지역,37,185,37.53268814,127.06749725,ST-483,2024-05-09 23:45:26
8,589. 성수역3번출구,0,0,37.54415894,127.05665588,ST-506,2024-05-09 23:45:26
20,590. 건국대학교 (입학정보관),0,0,37.53989029,127.07336426,ST-972,2024-05-09 23:45:26
5,591. 건국대학교 (행정관),0,0,37.54277802,127.07537079,ST-973,2024-05-09 23:45:26
30,592. 건국대학교 학생회관,2,7,37.54191208,127.07763672,ST-974,2024-05-09 23:45:26
8,593.자양중앙나들목,36,450,37.52845383,127.07803345,ST-980,2024-05-09 23:45:26
15,594. 중랑물재생센터(서울새활용플라자),2,13,37.55830383,127.05805969,ST-967,2024-05-09 23:45:26
10,600. 휘경2동 주민센터,3,30,37.58991241,127.06867981,ST-260,2024-05-09 23:45:26
10,601. 용신동주민센터,26,260,37.57594681,127.03736115,ST-261,2024-05-09 23:45:26
10,602. 장안동 사거리,37,370,37.57217407,127.07138824,ST-262,2024-05-09 23:45:26
8,605. 신설동역8번출구,10,125,37.57419968,127.02649689,ST-265,2024-05-09 23:45:26
15,606. 휘경공고앞,4,27,37.58462524,127.07028961,ST-266,2024-05-09 23:45:26
15,607. 신이문역 2번출구,6,40,37.60271072,127.06786346,ST-267,2024-05-09 23:45:26
10,608. 전농삼성아파트,0,0,37.58131027,127.05534363,ST-268,2024-05-09 23:45:26
30,609. 제기2교,18,60,37.58774567,127.03738403,ST-269,2024-05-09 23:45:26
10,610. 동대문중 교차로,31,310,37.57308578,127.05216217,ST-270,2024-05-09 23:45:26
20,612. 시립동부병원 앞 사거리,19,95,37.57366562,127.03081512,ST-271,2024-05-09 23:45:26
8,613. 신설동역 10번출구 앞,2,25,37.57527161,127.02346802,ST-272,2024-05-09 23:45:26
25,615. 용두동 래미안허브리츠아파트 앞,20,80,37.57638168,127.03511047,ST-274,2024-05-09 23:45:26
10,616. 서울시립대 정문 앞 A,0,0,37.58256149,127.05436707,ST-275,2024-05-09 23:45:26
20,617. 청솔우성아파트 앞,37,185,37.57420349,127.05769348,ST-276,2024-05-09 23:45:26
8,621. 전농초등학교 건너편,7,88,37.57489014,127.05353546,ST-389,2024-05-09 23:45:26
15,622. 전농사거리 교통섬,42,280,37.57779312,127.05783081,ST-390,2024-05-09 23:45:26
25,623. 서울시립대 정문 앞 B,0,0,37.58369827,127.05385590,ST-391,2024-05-09 23:45:26
10,624. 전농동 동아아파트 앞,42,420,37.57418823,127.04589081,ST-392,2024-05-09 23:45:26
17,626. 군자교 서측 녹지대,25,147,37.56115341,127.07096863,ST-394,2024-05-09 23:45:26
10,627. 장안동삼거리 교통섬,28,280,37.57863235,127.07190704,ST-395,2024-05-09 23:45:26
15,628. 휘봉고등학교 앞,12,80,37.58681488,127.06754303,ST-396,2024-05-09 23:45:26
15,630. 동대문구 보건소,11,73,37.57485199,127.04030609,ST-397,2024-05-09 23:45:26
15,631. 답십리역 1번출구,11,73,37.56818390,127.05127716,ST-398,2024-05-09 23:45:26
8,633. 청량리 기업은행 앞,0,0,37.58040619,127.04482269,ST-400,2024-05-09 23:45:26
24,634. 외국어대 정문 앞,23,96,37.59601974,127.05982971,ST-401,2024-05-09 23:45:26
12,635. 시조사 앞,8,67,37.58751678,127.05277252,ST-402,2024-05-09 23:45:26
9,636. 세종대왕기념관 교차로,8,89,37.59090042,127.04258728,ST-403,2024-05-09 23:45:26
10,637. KAIST 경영대학 앞,0,0,37.59161377,127.04579163,ST-404,2024-05-09 23:45:26
10,638. 서울시립대 정보기술관,0,0,37.58300781,127.06097412,ST-405,2024-05-09 23:45:26
7,639. 서울시립대 후문,0,0,37.58504486,127.06027222,ST-406,2024-05-09 23:45:26
6,640. 동대문경찰서 교차로,37,617,37.58255005,127.04460144,ST-407,2024-05-09 23:45:26
10,641. 용두역 4번출구,20,200,37.57375336,127.03853607,ST-408,2024-05-09 23:45:26
9,642. 신답역 사거리,23,256,37.57035446,127.04843140,ST-409,2024-05-09 23:45:26
10,643. 동대문구민체육센터 (육교아래),38,380,37.56697083,127.07429504,ST-410,2024-05-09 23:45:26
15,648. 장안동위더스빌옆,44,293,37.56669998,127.06242371,ST-1300,2024-05-09 23:45:26
20,650. 중랑교사거리,17,85,37.59153366,127.06774139,ST-1302,2024-05-09 23:45:26
10,652. 답십리 래미안엘파인아파트 입구,31,310,37.57653046,127.06594086,ST-1447,2024-05-09 23:45:26
10,654. 전농동 텃골공원,6,60,37.57762146,127.05210876,ST-1449,2024-05-09 23:45:26
10,656. 영휘원 교차로,18,180,37.58723831,127.04313660,ST-1628,2024-05-09 23:45:26
13,657. 동대문롯데캐슬아파트 앞,45,346,37.57573318,127.04847717,ST-1629,2024-05-09 23:45:26
25,659. 제기동역 1번출구,40,160,37.57835007,127.03338623,ST-1631,2024-05-09 23:45:26
10,660. 동의보감타워,9,90,37.57799911,127.03762817,ST-1632,2024-05-09 23:45:26
15,661. 경희대학교 청운관,0,0,37.59460068,127.05197144,ST-1625,2024-05-09 23:45:26
10,663. 외대앞역 3번출구,7,70,37.59489059,127.06302643,ST-1671,2024-05-09 23:45:26
10,664. 서울시립대 건설공학관,0,0,37.58412933,127.05793762,ST-1758,2024-05-09 23:45:26
11,665.이문동 쌍용아파트 정문,25,227,37.59960556,127.06864166,ST-2265,2024-05-09 23:45:26
20,666.이문대성유니드아파트 앞,8,40,37.60362244,127.07083130,ST-2266,2024-05-09 23:45:26
7,667.청량차도 육교 밑,7,100,37.58670807,127.04688263,ST-2267,2024-05-09 23:45:26
10,668.서울축산농협(장안지점),76,760,37.56787109,127.06871796,ST-2268,2024-05-09 23:45:26
10,669.청계한신휴플러스앞 삼거리,42,420,37.57214737,127.04460907,ST-2269,2024-05-09 23:45:26
9,670.삼육서울병원 버스정류장,26,289,37.58968735,127.06140900,ST-2270,2024-05-09 23:45:26
10,671.대광빌딩,3,30,37.57734299,127.02337646,ST-2271,2024-05-09 23:45:26
17,672.대광고등학교,4,24,37.57875061,127.02402496,ST-2272,2024-05-09 23:45:26
10,673.안암골벽산아파트(후문),0,0,37.58407974,127.03103638,ST-2273,2024-05-09 23:45:26
15,674.고대앞사거리 교통섬,6,40,37.58655167,127.03314209,ST-2274,2024-05-09 23:45:26
9,676.FITI시험연구원 앞,7,78,37.58143234,127.03547668,ST-2276,2024-05-09 23:45:26
10,679.전농SK아파트 앞,8,80,37.57787704,127.06168365,ST-2279,2024-05-09 23:45:26
22,680.꿈마루어린이도서관 앞,27,123,37.59238434,127.05741119,ST-2280,2024-05-09 23:45:26
14,681.서울특별시 동부교육지원청(육교),0,0,37.57983780,127.05637360,ST-2281,2024-05-09 23:45:26
8,701. 목동사거리 부근,39,488,37.53280258,126.86392975,ST-309,2024-05-09 23:45:26
19,702. 목4동주민센터 옆,57,300,37.53254318,126.86872864,ST-310,2024-05-09 23:45:26
12,703. 오목교역 7번출구 앞,0,0,37.52362823,126.87524414,ST-311,2024-05-09 23:45:26
14,704. 남부법원검찰청 교차로,13,93,37.52325439,126.86490631,ST-312,2024-05-09 23:45:26
15,706. 신정네거리역,4,27,37.52188110,126.85175323,ST-313,2024-05-09 23:45:26
16,708. 서울출입국관리사무소 앞,2,13,37.51897049,126.86996460,ST-315,2024-05-09 23:45:26
20,709. 신정3동 현장민원실 앞,9,45,37.51158524,126.84156036,ST-316,2024-05-09 23:45:26
10,710. 금옥여고보도육교,2,20,37.50971222,126.84416962,ST-317,2024-05-09 23:45:26
20,711. 신일해피트리아파트 앞,14,70,37.51705933,126.84848785,ST-318,2024-05-09 23:45:26
14,712. 강월초교입구 사거리,30,214,37.51699829,126.83831787,ST-319,2024-05-09 23:45:26
20,713. 양서중학교 옆,15,75,37.53304672,126.82995605,ST-320,2024-05-09 23:45:26
10,714. 한국SGI 양천문화회관 앞,29,290,37.53254700,126.83080292,ST-321,2024-05-09 23:45:26
23,716.신정6동 주민센터 인근,0,0,37.51731873,126.86431885,ST-428,2024-05-09 23:45:26
10,719. 홍익병원앞 교차로,25,250,37.53036880,126.86425781,ST-431,2024-05-09 23:45:26
10,720. 서울강월초등학교 앞,18,180,37.51619720,126.83489990,ST-432,2024-05-09 23:45:26
10,722. 경서농협 버스정류장(우리은행신정동지점방향),33,330,37.52151108,126.85738373,ST-993,2024-05-09 23:45:26
15,723. SBS방송국,0,0,37.52916336,126.87274933,ST-994,2024-05-09 23:45:26
10,724. 계남공원 입구 주출입구 좌측,17,170,37.51059723,126.85732269,ST-995,2024-05-09 23:45:26
15,725. 양강중학교앞 교차로,2,13,37.52433395,126.85054779,ST-996,2024-05-09 23:45:26
18,726. 목동3단지 시내버스정류장,67,372,37.53438950,126.86959839,ST-997,2024-05-09 23:45:26
10,729. 서부식자재마트 건너편,41,410,37.51037979,126.86679840,ST-1000,2024-05-09 23:45:26
10,731. 서울시 도로환경관리센터,1,10,37.52989960,126.87654114,ST-1002,2024-05-09 23:45:26
10,732. 신월중학교,10,100,37.53955078,126.82830048,ST-1003,2024-05-09 23:45:26
10,733. 신정이펜하우스314동,5,50,37.51409912,126.83100128,ST-1004,2024-05-09 23:45:26
10,734. 신트리공원 입구,79,790,37.51395035,126.85605621,ST-1005,2024-05-09 23:45:26
10,735. 영도초등학교,51,510,37.53637695,126.87151337,ST-1006,2024-05-09 23:45:26
10,736. 오솔길공원,44,440,37.52219009,126.83670044,ST-1007,2024-05-09 23:45:26
10,737. 장수공원,7,70,37.52256012,126.84947968,ST-1008,2024-05-09 23:45:26
15,739. 신월사거리,14,93,37.53620148,126.82779694,ST-1010,2024-05-09 23:45:26
8,740. 으뜸공원,38,475,37.53636932,126.83171082,ST-1011,2024-05-09 23:45:26
10,741. 화곡로 입구 교차로,5,50,37.53952026,126.82540131,ST-1012,2024-05-09 23:45:26
10,742. 등촌역 5번 출구 뒤,22,220,37.55073166,126.86457825,ST-1013,2024-05-09 23:45:26
10,743. 현대6차아파트 101동 옆,11,110,37.50889969,126.84268188,ST-1014,2024-05-09 23:45:26
40,744. 신목동역 2번 출구,3,8,37.54384232,126.88254547,ST-1015,2024-05-09 23:45:26
10,745. 강서초등학교,66,660,37.52228165,126.83969879,ST-1016,2024-05-09 23:45:26
10,746. 목동2단지 상가,3,30,37.53650284,126.87774658,ST-1017,2024-05-09 23:45:26
10,747. 목동3단지 상가,35,350,37.53458023,126.87564850,ST-1018,2024-05-09 23:45:26
15,748. 목동운동장,22,147,37.53025055,126.87930298,ST-1019,2024-05-09 23:45:26
10,749. 이대목동병원보도육교,3,30,37.53722763,126.88661194,ST-1350,2024-05-09 23:45:26
10,750. 연의근린공원 건너편,27,270,37.51215744,126.83562469,ST-1398,2024-05-09 23:45:26
10,752. 성원2차 아파트,21,210,37.54218292,126.86330414,ST-1400,2024-05-09 23:45:26
10,754. 목동1단지아파트 118동 앞,64,640,37.54114151,126.87667847,ST-1495,2024-05-09 23:45:26
7,755. 목동1단지아파트 상가 앞,1,14,37.53786850,126.88140869,ST-1496,2024-05-09 23:45:26
15,756. 목동주차장,4,27,37.52667999,126.87616730,ST-1497,2024-05-09 23:45:26
10,757. 신정이펜하우스 1단지아파트 입구 사거리,29,290,37.51427841,126.82874298,ST-1498,2024-05-09 23:45:26
13,758. 한사랑교회 앞,29,223,37.51472092,126.85919952,ST-1499,2024-05-09 23:45:26
10,759. 보아스아파트 앞,59,590,37.52407074,126.83860016,ST-1500,2024-05-09 23:45:26
10,760. 잣절보도육교 아래,12,120,37.50682068,126.84429932,ST-1501,2024-05-09 23:45:26
10,762. 오목로 무중력지대 앞,9,90,37.52474213,126.87766266,ST-1503,2024-05-09 23:45:26
10,763. 목동11단지 아파트,19,190,37.51065826,126.85916138,ST-1504,2024-05-09 23:45:26
12,765. 오목교역 3번출구,0,0,37.52477646,126.87548065,ST-1731,2024-05-09 23:45:26
15,766. 신목동역 3번출구,6,40,37.54394913,126.88346100,ST-1736,2024-05-09 23:45:26
10,767.신정숲속마을아파트,3,30,37.50574493,126.83631134,ST-1993,2024-05-09 23:45:26
15,768.목동5단지아파트 501동,32,213,37.53566742,126.88158417,ST-1994,2024-05-09 23:45:26
20,769.CBS방송국 앞,9,45,37.52785492,126.87467194,ST-1995,2024-05-09 23:45:26
15,770.목동역5번출구 교통정보센터 앞,28,187,37.52571487,126.86486816,ST-1996,2024-05-09 23:45:26
8,771.목동아파트 703동 앞,5,63,37.52820587,126.87016296,ST-1997,2024-05-09 23:45:26
11,774.등촌역 4번 출구 ,2,18,37.54950714,126.86721802,ST-2000,2024-05-09 23:45:26
10,775.세종그랑시아 앞(102동),16,160,37.53837585,126.86383057,ST-2001,2024-05-09 23:45:26
15,776.목마공원,13,87,37.53874207,126.88568115,ST-2002,2024-05-09 23:45:26
10,777.신월6차보람아파트 앞,45,450,37.53012848,126.83477783,ST-2003,2024-05-09 23:45:26
20,779. 신정1동 주민센터 앞,91,455,37.51854324,126.85388184,ST-2005,2024-05-09 23:45:26
15,780.신정교 하부,54,360,37.51733780,126.87764740,ST-2006,2024-05-09 23:45:26
15,781.신정보도육교 아래,107,713,37.51759338,126.87655640,ST-2007,2024-05-09 23:45:26
20,782.서남병원 후문,14,70,37.51167297,126.83274078,ST-2008,2024-05-09 23:45:26
24,"785.양천구청, 보건소 사잇길",2,8,37.51747513,126.86632538,ST-2011,2024-05-09 23:45:26
9,786.목동아파트 8단지 상가동 앞,24,267,37.52007294,126.86830139,ST-2012,2024-05-09 23:45:26
14,787.양천아파트 입구,91,650,37.50790405,126.86264801,ST-2013,2024-05-09 23:45:26
15,788.양천구청역 2번출구 옆,6,40,37.51228714,126.86528015,ST-2014,2024-05-09 23:45:26
15,791.현대하이페리온,24,160,37.52490616,126.86978912,ST-2016,2024-05-09 23:45:26
20,792.목동트라팰리스 웨스턴에비뉴,3,15,37.52537155,126.87092590,ST-2017,2024-05-09 23:45:26
15,793.목동5단지아파트 534동,31,207,37.53302002,126.87789917,ST-2039,2024-05-09 23:45:26
10,794.양천문화회관,59,590,37.51686478,126.86296082,ST-2395,2024-05-09 23:45:26
22,795.양천 해누리타운,4,18,37.51584244,126.86411285,ST-2396,2024-05-09 23:45:26
10,796.목동아파트 14단지 B상가 앞,45,450,37.51466370,126.87194061,ST-2397,2024-05-09 23:45:26
10,797.목동아파트 1422동 1434동 사잇길,79,790,37.51515579,126.87248993,ST-2398,2024-05-09 23:45:26
15,800. 목월공원 앞,19,127,37.53243256,126.95474243,ST-322,2024-05-09 23:45:26
9,802. 한강진역 2번 출구 앞,0,0,37.54115295,127.00221252,ST-324,2024-05-09 23:45:26
10,803. 한남초교 앞 보도육교,0,0,37.53813934,127.00409698,ST-325,2024-05-09 23:45:26
9,805. 문배어린이공원 앞,21,233,37.53675842,126.97000122,ST-326,2024-05-09 23:45:26
20,806. 전자랜드 본관 앞,2,10,37.53306580,126.96073151,ST-327,2024-05-09 23:45:26
10,807. 서울역 12번 출구 앞,0,0,37.55227661,126.97268677,ST-328,2024-05-09 23:45:26
10,808. 서빙고동 금호맨션 앞,2,20,37.52050400,126.98973846,ST-329,2024-05-09 23:45:26
10,809. 한남 유수지 복개주차장,5,50,37.53016663,127.00743866,ST-330,2024-05-09 23:45:26
10,810. 이태원지하보도,0,0,37.53841019,126.98664856,ST-331,2024-05-09 23:45:26
20,811. 녹사평역1번출구,1,5,37.53507996,126.98538208,ST-332,2024-05-09 23:45:26
10,812. 용산전쟁기념관,6,60,37.53483963,126.97766113,ST-333,2024-05-09 23:45:26
20,813. 삼각지역 3번출구,16,80,37.53351212,126.97227478,ST-334,2024-05-09 23:45:26
30,815. LIG강촌아파트 103동앞,38,127,37.51850891,126.97879791,ST-335,2024-05-09 23:45:26
25,816. 신용산역 6번출구 앞,18,72,37.53014755,126.96848297,ST-435,2024-05-09 23:45:26
9,817. 삼각지역 4번출구 앞,16,178,37.53345108,126.97173309,ST-436,2024-05-09 23:45:26
12,818. 숙명여대 입구 교차로,25,208,37.54489517,126.96938324,ST-437,2024-05-09 23:45:26
12,819. 선린인터넷 고등학교,21,175,37.54165268,126.97050476,ST-438,2024-05-09 23:45:26
10,820. 청파동입구 교차로,4,40,37.54902649,126.97194672,ST-439,2024-05-09 23:45:26
10,822. 이촌1동 마을공원,7,70,37.52202606,126.96618652,ST-440,2024-05-09 23:45:26
10,823. 효창동주민센터 앞,8,80,37.54232025,126.96195984,ST-441,2024-05-09 23:45:26
15,825. 서빙고동 주민센터 앞,23,153,37.52033615,126.99426270,ST-442,2024-05-09 23:45:26
20,826. 서울역 서부교차로2,27,135,37.55536652,126.96864319,ST-946,2024-05-09 23:45:26
14,827. 국군복지단,0,0,37.54188538,126.97966003,ST-1324,2024-05-09 23:45:26
7,828. 숙대입구역 8번,6,86,37.54407883,126.97200012,ST-1325,2024-05-09 23:45:26
40,829. 한강대교 북단 교차로,0,0,37.52293015,126.96169281,ST-1326,2024-05-09 23:45:26
10,830. 강변삼성스위트아파트 앞,8,80,37.53442383,126.94857025,ST-1327,2024-05-09 23:45:26
10,831. 이태원관광특구입구A(녹사평역쪽),0,0,37.53427887,126.98856354,ST-1328,2024-05-09 23:45:26
20,832. 이촌1동 주민센터 뒤,8,40,37.52128220,126.97346497,ST-1339,2024-05-09 23:45:26
15,834. 효창공원앞역 3번출구 뒤,25,167,37.53900909,126.96138000,ST-1341,2024-05-09 23:45:26
9,835. 남영역 건너편,8,89,37.54198074,126.97154236,ST-1342,2024-05-09 23:45:26
15,836. 현대자동차서비스 앞,13,87,37.53142166,126.95149994,ST-1343,2024-05-09 23:45:26
10,837. 한남나들목 입구,2,20,37.52898788,127.00662231,ST-1344,2024-05-09 23:45:26
8,838. 숙대입구역 4번출구,20,250,37.54446030,126.97238922,ST-1376,2024-05-09 23:45:26
10,839. 보광동 삼성리버빌아파트 앞,7,70,37.52400970,127.00144958,ST-1441,2024-05-09 23:45:26
10,840. 용산 파크타워 앞,6,60,37.52365112,126.97026825,ST-1442,2024-05-09 23:45:26
25,841. 신용산역 1번 출구,6,24,37.52960968,126.96887207,ST-1443,2024-05-09 23:45:26
19,843. 이태원관광특구B(용산구청쪽),0,0,37.53379822,126.98867035,ST-1445,2024-05-09 23:45:26
15,844. 이촌2동 동원베네스트 아파트 앞,43,287,37.52714920,126.95516205,ST-1446,2024-05-09 23:45:26
16,845. 용산 선인상가,2,13,37.53269958,126.96437836,ST-1615,2024-05-09 23:45:26
15,846. 용산중학교,8,53,37.54650116,126.98094940,ST-1721,2024-05-09 23:45:26
10,848. 삼각지12번 출구,5,50,37.53488922,126.97562408,ST-2172,2024-05-09 23:45:26
20,849. 삼각지 자이아파트,35,175,37.53607941,126.97341919,ST-2173,2024-05-09 23:45:26
15,850. KCC용산월츠타워 ,10,67,37.53739929,126.96892548,ST-2174,2024-05-09 23:45:26
10,851.효창 푸르지오 앞,8,80,37.54047775,126.95811462,ST-2175,2024-05-09 23:45:26
30,852. 청암자이아파트 앞,8,27,37.53452682,126.94718170,ST-2176,2024-05-09 23:45:26
19,853.용산역 맞은편,6,32,37.52848816,126.96584320,ST-2177,2024-05-09 23:45:26
10,854.HID 유족동지회 앞,1,10,37.53850937,127.00148010,ST-2178,2024-05-09 23:45:26
10,855.이촌역5번출구 앞,0,0,37.52272415,126.97277069,ST-2179,2024-05-09 23:45:26
10,857. 현대 안성타워,0,0,37.53508759,126.99797058,ST-2181,2024-05-09 23:45:26
10,858.녹사평역3번 출구,0,0,37.53440857,126.98689270,ST-2182,2024-05-09 23:45:26
10,859.남산공원 야외식물원 앞,1,10,37.54188538,126.99586487,ST-2183,2024-05-09 23:45:26
22,860.LG한강 자이아파트 앞,5,23,37.52074814,126.97082520,ST-2184,2024-05-09 23:45:26
10,863.이촌역2번 출구,4,40,37.52177048,126.97700500,ST-2187,2024-05-09 23:45:26
10,864.순천향대학병원(한남오거리),4,40,37.53514099,127.00600433,ST-2188,2024-05-09 23:45:26
10,865.하얏트호텔 앞,0,0,37.54079437,126.99784851,ST-2189,2024-05-09 23:45:26
10,866.브라운스톤 남산아파트,16,160,37.55154800,126.97686005,ST-2190,2024-05-09 23:45:26
10,867.서빙고역 광장(1번출구),13,130,37.51990891,126.98923492,ST-2191,2024-05-09 23:45:26
10,869.노들섬 동측 앞,0,0,37.51729584,126.95914459,ST-2239,2024-05-09 23:45:26
10,870.노들섬 서측 앞,1,10,37.51731873,126.95829773,ST-2240,2024-05-09 23:45:26
20,900. 은평예술회관,20,100,37.60394287,126.92769623,ST-448,2024-05-09 23:45:26
10,902. 진관동 은빛초등학교,19,190,37.64310837,126.91822052,ST-450,2024-05-09 23:45:26
19,903. 은평뉴타운 아이파크,17,89,37.64586639,126.92739105,ST-451,2024-05-09 23:45:26
16,904. 은평뉴타운 푸르지오,15,94,37.64867401,126.93070221,ST-452,2024-05-09 23:45:26
10,905. 구파발역 2번출구,1,10,37.63623428,126.91899872,ST-453,2024-05-09 23:45:26
9,906. 연신내역 5번출구,28,311,37.61721039,126.91957855,ST-454,2024-05-09 23:45:26
10,907. CJ 드림시티,32,320,37.59949112,126.91686249,ST-455,2024-05-09 23:45:26
10,908. 구산역 4번출구,19,190,37.61318588,126.91735077,ST-456,2024-05-09 23:45:26
10,909. 백련산 힐스테이트 3차,18,180,37.58699417,126.92288208,ST-457,2024-05-09 23:45:26
10,911. 은평평화공원(역촌역4번출구),8,80,37.60558319,126.92293549,ST-459,2024-05-09 23:45:26
20,912. 응암오거리,37,185,37.58966064,126.91694641,ST-460,2024-05-09 23:45:26
15,913. 이마트 버스정류장(서부경찰서 방면),1,7,37.60070038,126.92012787,ST-461,2024-05-09 23:45:26
20,914. 새절역 2번출구,49,245,37.59079742,126.91365051,ST-462,2024-05-09 23:45:26
10,915. 증산역 4번출구,19,190,37.58438110,126.90989685,ST-463,2024-05-09 23:45:26
13,916. 평생학습관 앞,23,177,37.60784912,126.92132568,ST-464,2024-05-09 23:45:26
10,917. 녹번역 3번출구,0,0,37.60076141,126.93537140,ST-465,2024-05-09 23:45:26
10,919. 서울혁신파크,8,80,37.60702515,126.93331146,ST-467,2024-05-09 23:45:26
8,921. 신도고등학교,4,50,37.63001633,126.91902924,ST-469,2024-05-09 23:45:26
10,922. 연신내역 4번출구,3,30,37.61780167,126.92196655,ST-470,2024-05-09 23:45:26
10,923. 국민은행 연서지점,5,50,37.62094879,126.92563629,ST-471,2024-05-09 23:45:26
12,924. 메뚜기다리,0,0,37.62851715,126.92958069,ST-472,2024-05-09 23:45:26
8,925. 불광역 2번출구,10,125,37.60956573,126.93097687,ST-473,2024-05-09 23:45:26
10,927. 연신내역 3번출구 인근,4,40,37.61785507,126.92252350,ST-475,2024-05-09 23:45:26
15,928. 은평역사한옥박물관,1,7,37.64131546,126.93804169,ST-476,2024-05-09 23:45:26
7,930. 구 서부경찰서 건너편,13,186,37.60166168,126.92030334,ST-478,2024-05-09 23:45:26
19,931. 역촌파출소,48,253,37.60473633,126.91533661,ST-479,2024-05-09 23:45:26
20,932. 예일여중,14,70,37.61000443,126.91639709,ST-480,2024-05-09 23:45:26
15,933. 역촌종합시장 버스정류장(예일여고 방면),44,293,37.61248398,126.91487885,ST-481,2024-05-09 23:45:26
10,934. 신사동 성당,3,30,37.59714127,126.90959930,ST-1020,2024-05-09 23:45:26
10,937. 상림마을 롯데캐슬2단지 옆,12,120,37.64585114,126.92379761,ST-1023,2024-05-09 23:45:26
10,938. 금암 문화공원,14,140,37.64468384,126.91845703,ST-1024,2024-05-09 23:45:26
15,939. 은평구청 교차로,6,40,37.60169983,126.92742157,ST-1025,2024-05-09 23:45:26
13,941. 은평뉴타운 도서관,1,8,37.63722229,126.93330383,ST-1027,2024-05-09 23:45:26
9,942. 상림마을 생태공원,4,44,37.64408112,126.92928314,ST-1028,2024-05-09 23:45:26
10,943. 은평구청 보건소,1,10,37.60240173,126.92864990,ST-1029,2024-05-09 23:45:26
10,945. 기자촌 사거리 A,0,0,37.63414001,126.93234253,ST-1031,2024-05-09 23:45:26
16,946. 독바위역 ,6,38,37.61843872,126.93288422,ST-1032,2024-05-09 23:45:26
10,947. 연신내 선일하이츠빌 정류소,5,50,37.62266922,126.91999054,ST-1033,2024-05-09 23:45:26
10,948. 디지털미디어 시티역 4번출구(DMC역),0,0,37.57720184,126.90235138,ST-1034,2024-05-09 23:45:26
6,949. 연신내역 1번 출구 ,18,300,37.61978149,126.92080688,ST-1035,2024-05-09 23:45:26
10,950. 구산역 2번 출구 예일여고 버스정류장,15,150,37.60980225,126.91679382,ST-1036,2024-05-09 23:45:26
10,952. 서울연신중학교,8,80,37.62265015,126.92524719,ST-1038,2024-05-09 23:45:26
10,953. 서울연신초등학교,4,40,37.62577820,126.92881775,ST-1039,2024-05-09 23:45:26
10,954. 은평뉴타운구파발9단지,15,150,37.64260864,126.92147827,ST-1329,2024-05-09 23:45:26
9,956. 응암시장교차로,48,533,37.59441376,126.91801453,ST-1331,2024-05-09 23:45:26
13,958. 본 서부병원 버스정류장(은평 세무서 방면),11,85,37.60036087,126.92281342,ST-1479,2024-05-09 23:45:26
10,959. 구파발10단지 인근,5,50,37.64366150,126.91455841,ST-1480,2024-05-09 23:45:26
15,960. 구파발역 환승센터,34,227,37.63825226,126.91945648,ST-1481,2024-05-09 23:45:26
8,961. 불광역 9번 출구,4,50,37.61096954,126.92980957,ST-1482,2024-05-09 23:45:26
10,962. 은평뉴타운 힐데스하임,20,200,37.63925934,126.91890717,ST-1483,2024-05-09 23:45:26
13,963. 대호프라자아파트,21,162,37.61442947,126.93257904,ST-1484,2024-05-09 23:45:26
10,964. 북한산힐스테이트 7차아파트,0,0,37.61654282,126.92512512,ST-1485,2024-05-09 23:45:26
10,965. 서울특별시 은평병원,1,10,37.59347916,126.92318726,ST-1486,2024-05-09 23:45:26
10,966. 서울혁신파크1,2,20,37.60944748,126.93467712,ST-1487,2024-05-09 23:45:26
13,967. 서울혁신파크2,6,46,37.60849762,126.93199921,ST-1488,2024-05-09 23:45:26
7,968. 은평뉴타운 상림마을 13단지,3,43,37.64208984,126.92941284,ST-1489,2024-05-09 23:45:26
9,969. 은평 지웰테라스,6,67,37.64339447,126.93213654,ST-1490,2024-05-09 23:45:26
20,971. 역촌 센트레빌 아파트,2,10,37.60232925,126.90654755,ST-1674,2024-05-09 23:45:26
10,973.제각말푸르지오 5-1단지 아파트,0,0,37.63734818,126.93584442,ST-2241,2024-05-09 23:45:26
10,974.연신초등학교옆 마을마당,0,0,37.62672043,126.92901611,ST-2242,2024-05-09 23:45:26
10,975.백련산 힐스테이트상가앞,15,150,37.59036255,126.92301178,ST-2243,2024-05-09 23:45:26
10,976.진관고등학교앞,5,50,37.64350891,126.92410278,ST-2244,2024-05-09 23:45:26
10,977.신도중학교앞,0,0,37.63310242,126.93150330,ST-2245,2024-05-09 23:45:26
10,978.녹번 힐스테이트상가앞,0,0,37.60100937,126.93592834,ST-2246,2024-05-09 23:45:26
10,979.원풍빌라앞,8,80,37.59186172,126.90608215,ST-2247,2024-05-09 23:45:26
10,982. 녹번초등학교(서오릉로),14,140,37.60412598,126.92508698,ST-2250,2024-05-09 23:45:26
9,984.상신초등학교앞 버스정류장,10,111,37.59580994,126.91026306,ST-2252,2024-05-09 23:45:26
10,985. 은평세무서 버스정류장(은평구청 방면),6,60,37.60119247,126.92638397,ST-2253,2024-05-09 23:45:26
7,989. 신응교(가좌로) 앞,22,314,37.59181213,126.91483307,ST-2257,2024-05-09 23:45:26
10,991.흥국사 정류장,4,40,37.65676880,126.94200897,ST-2259,2024-05-09 23:45:26
10,992.북한산입구 정류장,0,0,37.65828705,126.94529724,ST-2260,2024-05-09 23:45:26
15,993.은평뉴타운 은뜨락아파트앞,0,0,37.63028717,126.91956329,ST-2261,2024-05-09 23:45:26
10,994.북한산생태공원입구(교통섬),0,0,37.61050797,126.93853760,ST-2262,2024-05-09 23:45:26
10,995.은평다목적체육관,6,60,37.63140869,126.92540741,ST-2263,2024-05-09 23:45:26
10,996.응암역2번출구 국민은행 앞,13,130,37.59996796,126.91572571,ST-2264,2024-05-09 23:45:26
15,1001. 광진교 남단 사거리(천호공원 방면),19,127,37.54179382,127.12474823,ST-485,2024-05-09 23:45:26
10,1002. 해공공원(천호동),55,550,37.54526520,127.12593842,ST-486,2024-05-09 23:45:26
20,1003. 해공도서관앞,8,40,37.54395676,127.12548828,ST-487,2024-05-09 23:45:26
10,1004. 삼성광나루아파트 버스정류장,50,500,37.55332947,127.12886810,ST-488,2024-05-09 23:45:26
10,1006. 롯데캐슬 115동앞,3,30,37.55486679,127.14279938,ST-490,2024-05-09 23:45:26
14,1007.암사동 선사유적지,27,193,37.55955887,127.13087463,ST-491,2024-05-09 23:45:26
9,1008. 암사역 3번출구(국민은행앞),55,611,37.54935455,127.12708282,ST-492,2024-05-09 23:45:26
20,1009. 천호역4번출구(현대백화점),2,10,37.53866577,127.12424469,ST-493,2024-05-09 23:45:26
20,1010. 강동세무서,28,140,37.53450775,127.13840485,ST-494,2024-05-09 23:45:26
20,1011. LIGA 아파트 앞,40,200,37.53474426,127.13528442,ST-495,2024-05-09 23:45:26
15,1012. 천호역효성해링턴타워 앞,11,73,37.53600693,127.12272644,ST-496,2024-05-09 23:45:26
15,1013. 강동구청역 1번 출입구,1,7,37.53071594,127.12098694,ST-497,2024-05-09 23:45:26
13,1015. 샛마을 근린공원,9,69,37.55003738,127.14691162,ST-499,2024-05-09 23:45:26
10,1016. 해뜨는 주유소옆 리엔파크 109동앞,3,30,37.55939865,127.17118073,ST-500,2024-05-09 23:45:26
20,1017. 둔촌고교입구 교차로(길동주민센터 방면),68,340,37.53544617,127.14518738,ST-501,2024-05-09 23:45:26
15,1018. 둔촌 주공 GS 맞은편,5,33,37.52458954,127.13542175,ST-830,2024-05-09 23:45:26
10,1019. 다성이즈빌아파트(호원대 대각선 맞은편),48,480,37.52679443,127.13005829,ST-502,2024-05-09 23:45:26
15,1020. 강동경찰서,9,60,37.52825165,127.12680054,ST-503,2024-05-09 23:45:26
15,1021. 강일동 리슈빌 빌딩앞,60,400,37.56427383,127.17397308,ST-504,2024-05-09 23:45:26
20,1022. 길동 사거리(초소앞),25,125,37.53377914,127.13799286,ST-505,2024-05-09 23:45:26
22,1023. 한국종합기술사옥 앞,6,27,37.54998398,127.17470551,ST-1040,2024-05-09 23:45:26
10,1024.  강동구청 앞,17,170,37.52929688,127.12315369,ST-1041,2024-05-09 23:45:26
10,1025. 상일초등학교,14,140,37.54684067,127.17251587,ST-1042,2024-05-09 23:45:26
20,1027. 프라자 아파트 앞,30,150,37.53596115,127.14781952,ST-1044,2024-05-09 23:45:26
10,1028. 포레스 주상복합 빌딩,6,60,37.53310776,127.12277222,ST-1045,2024-05-09 23:45:26
7,1029. 성내어울터,7,100,37.53655624,127.12553406,ST-1046,2024-05-09 23:45:26
15,1030. 미호 플랜트 앞,24,160,37.52703094,127.12206268,ST-1047,2024-05-09 23:45:26
20,1032. 선사고등학교,46,230,37.55672836,127.13626099,ST-1049,2024-05-09 23:45:26
17,1033. 고덕동 아남아파트,33,194,37.55793381,127.14476776,ST-1050,2024-05-09 23:45:26
10,1034. 고덕동 래미안 힐스테이트,22,220,37.56187820,127.15078735,ST-1051,2024-05-09 23:45:26
10,1036. 고덕동 주양쇼핑,2,20,37.55199051,127.15331268,ST-1053,2024-05-09 23:45:26
10,1037. 강일리버파크 6단지,1,10,37.56256485,127.17761230,ST-1054,2024-05-09 23:45:26
10,1038. 강일 다솜 어린이 공원,40,400,37.56863785,127.17480469,ST-1055,2024-05-09 23:45:26
7,1039. 고덕초등학교,12,171,37.56129837,127.16784668,ST-1056,2024-05-09 23:45:26
10,1041. 묘곡초등학교,4,40,37.55916214,127.15332031,ST-1058,2024-05-09 23:45:26
10,1042. 강일리버파크 2~5단지,65,650,37.56854630,127.17700958,ST-1059,2024-05-09 23:45:26
15,1044. 굽은다리역,69,460,37.54540634,127.14267731,ST-1061,2024-05-09 23:45:26
13,1048. 둔촌어린이공원,32,246,37.53099442,127.14237213,ST-1370,2024-05-09 23:45:26
10,1049. 강일리버파크 10단지,52,520,37.56120300,127.18026733,ST-1371,2024-05-09 23:45:26
15,1050.  둔촌역 3번 출입구,33,220,37.52678299,127.13557434,ST-1420,2024-05-09 23:45:26
15,"1051. 강일중,선사고 버스정류장(신암중학교 방면)",21,140,37.55483627,127.13732147,ST-1421,2024-05-09 23:45:26
11,1053. 동명근린공원 진입로 (아리수로),16,145,37.56254578,127.16448212,ST-1594,2024-05-09 23:45:26
5,1054. 말우물 어린이 공원,18,360,37.56002808,127.16967773,ST-1595,2024-05-09 23:45:26
10,1056. 강일리버파크 7~11단지,52,520,37.56335449,127.17905426,ST-1597,2024-05-09 23:45:26
15,1057. 능골근린공원,7,47,37.55580902,127.17374420,ST-1598,2024-05-09 23:45:26
12,1058. 고덕숲 아이파크 1,19,158,37.55348206,127.16505432,ST-1623,2024-05-09 23:45:26
15,1059. 래미안 강동팰리스(102동),28,187,37.53822708,127.13174438,ST-1626,2024-05-09 23:45:26
6,1060. 천일초교 사거리,13,217,37.54467010,127.13267517,ST-1620,2024-05-09 23:45:26
8,1061. 천호초교 입구 사거리(일주빌딩),21,263,37.54689789,127.13466644,ST-1621,2024-05-09 23:45:26
10,1062. 고덕숲 아이파크 2,6,60,37.55107880,127.16259766,ST-1622,2024-05-09 23:45:26
10,1063.강동롯데캐슬퍼스트 아파트(관리동),22,220,37.55666351,127.14273834,ST-1762,2024-05-09 23:45:26
10,1064.중앙보훈병원역 1번출구,0,0,37.52779388,127.14764404,ST-1763,2024-05-09 23:45:26
10,1065.보훈병원 후문옆(더 원커피),0,0,37.53120804,127.14926910,ST-1764,2024-05-09 23:45:26
10,1066.생태공원앞 교차로(조명탑),2,20,37.53776550,127.15201569,ST-1765,2024-05-09 23:45:26
10,1067.한영중고앞사거리,5,50,37.54903412,127.15605164,ST-1766,2024-05-09 23:45:26
10,1068.명일파출소,0,0,37.55364990,127.15622711,ST-1767,2024-05-09 23:45:26
10,1070.(시립)고덕평생학습관,0,0,37.55570221,127.15792084,ST-1831,2024-05-09 23:45:26
22,1072.고덕역 5번출구,0,0,37.55486298,127.15372467,ST-1833,2024-05-09 23:45:26
7,1073. SSTS 몰 앞,44,629,37.54114532,127.14105225,ST-1834,2024-05-09 23:45:26
15,1074.대명초교입구 사거리,17,113,37.54683685,127.14916229,ST-1835,2024-05-09 23:45:26
10,1075.천동초교 삼거리,47,470,37.54136276,127.13718414,ST-1836,2024-05-09 23:45:26
10,1076. 천동초교입구사거리 버스정류장(십자성마을 방면),24,240,37.53989410,127.14103699,ST-1837,2024-05-09 23:45:26
15,1077.강동역 1번출구 앞,6,40,37.53627014,127.13246918,ST-1838,2024-05-09 23:45:26
25,1078.둔촌사거리,9,36,37.52197647,127.13362122,ST-1839,2024-05-09 23:45:26
10,1079.강일동입구교차로,40,400,37.56184387,127.17084503,ST-1840,2024-05-09 23:45:26
10,1080.엘웨딩,23,230,37.53683090,127.12841797,ST-1841,2024-05-09 23:45:26
20,1081.트레빌빌딩,11,55,37.53699875,127.12953186,ST-1842,2024-05-09 23:45:26
10,1082.중앙보훈병원역3번출구,0,0,37.52956009,127.14900970,ST-1843,2024-05-09 23:45:26
15,1083.광문고교사거리(아이파크),14,93,37.56036758,127.15659332,ST-1844,2024-05-09 23:45:26
20,1084. 윤선생빌딩(JYP사옥),22,110,37.52392960,127.12912750,ST-1687,2024-05-09 23:45:26
20,1085.래미안 솔베뉴(고덕로),1,5,37.55456924,127.14587402,ST-1845,2024-05-09 23:45:26
10,1086.래미안 솔베뉴(구천면로),1,10,37.55059814,127.14545441,ST-1846,2024-05-09 23:45:26
12,1088.풍납사거리(강동),11,92,37.52812195,127.11952209,ST-1848,2024-05-09 23:45:26
10,1089.고덕 래미안힐스테이트(201동),1,10,37.56060028,127.14669800,ST-1849,2024-05-09 23:45:26
17,1090.상일동역 2번출구 앞,5,29,37.55678940,127.16614532,ST-1850,2024-05-09 23:45:26
10,1101. 상사마을 버스정류장(아라대교방면),28,280,37.58161163,126.79859924,ST-507,2024-05-09 23:45:26
10,1102. 방화사거리 마을버스 버스정류장,21,210,37.57364273,126.81180573,ST-508,2024-05-09 23:45:26
10,1103. 방화역 4번출구앞,23,230,37.57710648,126.81199646,ST-831,2024-05-09 23:45:26
10,1105. 방화근린공원,10,100,37.58162308,126.81265259,ST-509,2024-05-09 23:45:26
10,1106. 신방화사거리,39,390,37.57256317,126.81642151,ST-824,2024-05-09 23:45:26
8,1108. 공항시장역 2번출구 뒤,47,588,37.56387329,126.81060791,ST-510,2024-05-09 23:45:26
6,1109. 공항시장역 4번출구,15,250,37.56334686,126.81048584,ST-511,2024-05-09 23:45:26
15,1110. 공항중학교앞,40,267,37.56220245,126.81624603,ST-828,2024-05-09 23:45:26
20,1111. 마곡엠밸리6_7단지 마곡중학교,0,0,37.56698227,126.82180023,ST-512,2024-05-09 23:45:26
15,1112. 마곡엠밸리4단지 정문,15,100,37.56857681,126.82477570,ST-513,2024-05-09 23:45:26
15,1113. 서남환경공원 버스정류장,60,400,37.57312393,126.82238770,ST-514,2024-05-09 23:45:26
10,1117. 등촌5단지아파트 버스정류장,9,90,37.55819702,126.84426117,ST-834,2024-05-09 23:45:26
10,1118. 증미역 3번출구뒤(등촌두산위브센티움오피스텔),20,200,37.55746078,126.86145782,ST-516,2024-05-09 23:45:26
6,1119. 염창동 한마음아파트 앞,5,83,37.55425262,126.86756134,ST-517,2024-05-09 23:45:26
25,1120. 대림경동아파트앞,25,100,37.56478500,126.85464478,ST-518,2024-05-09 23:45:26
15,1121. 가양레포츠센터 앞,21,140,37.55947876,126.86437988,ST-519,2024-05-09 23:45:26
17,1122. 황금내근린공원,37,218,37.56192398,126.86416626,ST-520,2024-05-09 23:45:26
6,1124. 발산역 6번 출구 뒤,0,0,37.55817795,126.83845520,ST-522,2024-05-09 23:45:26
18,1125. 명덕고교입구(영종빌딩),76,422,37.55291367,126.83657074,ST-835,2024-05-09 23:45:26
7,1126. 우장산역 1번출구옆(우장산아이파크105동앞),0,0,37.54890823,126.83656311,ST-523,2024-05-09 23:45:26
10,1127. 화곡역 버스정류장,18,180,37.54098129,126.83854675,ST-524,2024-05-09 23:45:26
10,1128. 화곡역 6번출구,1,10,37.54141235,126.84022522,ST-829,2024-05-09 23:45:26
7,1129. 화곡역 1번 출구 앞,10,143,37.54209900,126.84021759,ST-525,2024-05-09 23:45:26
7,1130. 화곡본동시장 버스정류장,12,171,37.54275131,126.84262085,ST-526,2024-05-09 23:45:26
10,1132. 등촌역 7번출구,39,390,37.55110931,126.86370850,ST-528,2024-05-09 23:45:26
16,1135. 강서구의회,24,150,37.54653168,126.86254883,ST-530,2024-05-09 23:45:26
8,1136. 등촌2파출소,6,75,37.54478836,126.86199951,ST-531,2024-05-09 23:45:26
10,1137. 등촌2동주민센터,5,50,37.54126358,126.86337280,ST-532,2024-05-09 23:45:26
8,1139. 용문사 버스정류장,7,88,37.53852081,126.86343384,ST-533,2024-05-09 23:45:26
17,1140. 목동사거리 버스정류장,44,259,37.53139877,126.86360931,ST-534,2024-05-09 23:45:26
20,1141. 곰달래 문화복지센터 A,62,310,37.52906036,126.84848022,ST-535,2024-05-09 23:45:26
10,1145. 곰달래 문화복지센터 B,40,400,37.52891922,126.84808350,ST-536,2024-05-09 23:45:26
10,1148. 볏골공원,33,330,37.54146957,126.84477997,ST-538,2024-05-09 23:45:26
13,1149. 신방화역환승주차장,2,15,37.56728363,126.81827545,ST-975,2024-05-09 23:45:26
7,1150. 송정역 1번출구,27,386,37.56153107,126.81069946,ST-1062,2024-05-09 23:45:26
25,1151. 마곡역1번출구,0,0,37.56020737,126.82414246,ST-1063,2024-05-09 23:45:26
30,1152. 마곡역교차로,47,157,37.55831146,126.82652283,ST-1064,2024-05-09 23:45:26
10,1155. 기쁜우리복지관,29,290,37.56925964,126.84841919,ST-1067,2024-05-09 23:45:26
8,1157. 강서구청,78,975,37.55065918,126.84976959,ST-1069,2024-05-09 23:45:26
20,1158. 가양역 8번출구,27,135,37.56103516,126.85481262,ST-1249,2024-05-09 23:45:26
20,1159. 서서울모터리움 앞,47,235,37.56585312,126.84659576,ST-1250,2024-05-09 23:45:26
20,1160. 양천향교역 7번출구앞,9,45,37.56768036,126.84089661,ST-1251,2024-05-09 23:45:26
10,1161. 강서면허시험장 앞,1,10,37.54969406,126.81966400,ST-1252,2024-05-09 23:45:26
10,1162. 공항초등학교건너편,53,530,37.56267929,126.82047272,ST-1253,2024-05-09 23:45:26
10,1163. 방화동강서기동대앞,30,300,37.57049942,126.82008362,ST-1254,2024-05-09 23:45:26
20,1165. 마곡중학교 후문,18,90,37.56844711,126.82164764,ST-1338,2024-05-09 23:45:26
10,1166. 강서구립등빛도서관,23,230,37.56256866,126.84246063,ST-1351,2024-05-09 23:45:26
15,1167. 마곡수명산파크3단지 교차로,58,387,37.55350876,126.82586670,ST-1352,2024-05-09 23:45:26
14,1168. 마곡엠밸리10단지 앞,20,143,37.56029129,126.81875610,ST-1402,2024-05-09 23:45:26
8,1169. 염창역 1번 출구,1,13,37.54719925,126.87448883,ST-1506,2024-05-09 23:45:26
11,1170. 강서구보건소,2,18,37.54917908,126.86879730,ST-1507,2024-05-09 23:45:26
8,1171. 염창동 새마을금고 건너편,36,450,37.55004883,126.87316132,ST-1508,2024-05-09 23:45:26
8,1172. 가양3동 주민센터,26,325,37.56124878,126.86058044,ST-1509,2024-05-09 23:45:26
15,1173. 강서구청사거리(SH타워),55,367,37.55673599,126.85307312,ST-1510,2024-05-09 23:45:26
9,1174. 강서구청사거리(부민병원),1,11,37.55661392,126.85116577,ST-1511,2024-05-09 23:45:26
15,1177. 수명중․고교,29,193,37.55010986,126.82367706,ST-1514,2024-05-09 23:45:26
10,1178. 개화산역 2번 출구,9,90,37.57247162,126.80616760,ST-1515,2024-05-09 23:45:26
15,1180. 마곡엠밸리 15단지(1502동) 건너편,42,280,37.55746841,126.82971954,ST-1517,2024-05-09 23:45:26
10,1181. 농수산식품공사 (강서지사),34,340,37.55104446,126.81849670,ST-1518,2024-05-09 23:45:26
20,1182. KBS 스포츠월드,12,60,37.55687714,126.84880829,ST-1519,2024-05-09 23:45:26
10,1183. KC 대학교,7,70,37.54832077,126.85340118,ST-1520,2024-05-09 23:45:26
26,1184. 마곡13단지,95,365,37.55644989,126.81597900,ST-1645,2024-05-09 23:45:26
20,1185. 등촌9단지,32,160,37.56290054,126.84947205,ST-1646,2024-05-09 23:45:26
15,1186. 송정중학교,31,207,37.55472946,126.81609344,ST-1647,2024-05-09 23:45:26
15,1187. 강서수산물도매시장,23,153,37.55302048,126.81836700,ST-1676,2024-05-09 23:45:26
8,1188. 롯데중앙연구소,14,175,37.57138062,126.82833862,ST-1708,2024-05-09 23:45:26
14,1190. 마곡역 교차로(2번출구),5,36,37.56050110,126.82665253,ST-1709,2024-05-09 23:45:26
13,"1191. 마곡역 버스정류장(마곡나루역1번출구, 웰튼병원 방면)",6,46,37.56024170,126.82716370,ST-1689,2024-05-09 23:45:26
20,1192. 마곡수명산파크 209동 건너편,55,275,37.55545044,126.82689667,ST-1710,2024-05-09 23:45:26
51,1193. 마곡센트럴타워 1차,12,24,37.55947113,126.83207703,ST-1688,2024-05-09 23:45:26
24,1195. 코오롱One&Only타워,0,0,37.56412888,126.83431244,ST-1712,2024-05-09 23:45:26
11,1196. 서울식물원(문화센터) 건너편,0,0,37.56824112,126.83583069,ST-1713,2024-05-09 23:45:26
20,1197. 엠펠리체 호텔 건너편,3,15,37.56024170,126.83580780,ST-1714,2024-05-09 23:45:26
31,1198. LG 사이언스파크,1,3,37.56254959,126.82743835,ST-1715,2024-05-09 23:45:26
13,1199. 우장산역 3번출구,1,8,37.54782104,126.83612823,ST-1694,2024-05-09 23:45:26
10,1200. 개화광역환승센터,15,150,37.57844925,126.79897308,ST-1695,2024-05-09 23:45:26
15,1201. 가락시장역 3번 출구,7,47,37.49317932,127.11854553,ST-838,2024-05-09 23:45:26
20,1203. 밀리아나2빌딩 앞,21,105,37.49372864,127.12062073,ST-737,2024-05-09 23:45:26
10,1204. 거여역 3번출구,17,170,37.49334335,127.14472961,ST-930,2024-05-09 23:45:26
15,1205. 종합운동장역 4번출구,0,0,37.51042938,127.07137299,ST-539,2024-05-09 23:45:26
20,1206. 9호선종합운동장역 9번출구,0,0,37.51128006,127.07823944,ST-540,2024-05-09 23:45:26
10,1207. 마천중앙시장,18,180,37.49975586,127.15250397,ST-738,2024-05-09 23:45:26
25,1208. 풍납현대아파트쉼터,24,96,37.52974701,127.11996460,ST-541,2024-05-09 23:45:26
20,1209. 잠실나루역 (2번 출구 쪽),0,0,37.52045059,127.10420227,ST-542,2024-05-09 23:45:26
30,1210. 롯데월드타워(잠실역2번출구 쪽),1,3,37.51312637,127.10095978,ST-891,2024-05-09 23:45:26
10,1212. 송파역 2번 출구앞,2,20,37.49941254,127.11286926,ST-839,2024-05-09 23:45:26
12,1213. 백토공원 앞,1,8,37.50831985,127.13321686,ST-543,2024-05-09 23:45:26
10,1214. 오금역 7번 출구 인근,0,0,37.50259399,127.12764740,ST-740,2024-05-09 23:45:26
15,1215. 올림픽공원역 1번출구 앞,1,7,37.51657104,127.13153839,ST-544,2024-05-09 23:45:26
15,1217. 송파파인타운 7단지,10,67,37.47930527,127.12979889,ST-545,2024-05-09 23:45:26
12,1218. 방이역 4번출구,6,50,37.50896835,127.12583923,ST-892,2024-05-09 23:45:26
15,1220. 잠실근린공원,35,233,37.50569153,127.08403778,ST-546,2024-05-09 23:45:26
9,1221. 삼전역 4번출구,19,211,37.50419998,127.08753204,ST-933,2024-05-09 23:45:26
23,1222. 잠실새내역 5번 출구 뒤,14,61,37.51198196,127.08505249,ST-547,2024-05-09 23:45:26
15,1224. 아시아지하보도 2번 출구,7,47,37.51216888,127.07893372,ST-548,2024-05-09 23:45:26
10,1226. 잠실4동 주민센터 옆,10,100,37.52007675,127.11236572,ST-894,2024-05-09 23:45:26
10,1227. 거여역 8번출구 뒤,6,60,37.49312592,127.14382172,ST-895,2024-05-09 23:45:26
10,1228. 마천사거리 ,35,350,37.49769974,127.14620209,ST-896,2024-05-09 23:45:26
15,1229. 송파체육문화회관 앞,18,120,37.49068832,127.14312744,ST-549,2024-05-09 23:45:26
10,1230. 송파중학교 정문,0,0,37.49567032,127.13059235,ST-897,2024-05-09 23:45:26
13,1231. 잠실역 6번출구,0,0,37.51408768,127.09902954,ST-840,2024-05-09 23:45:26
10,1232. 잠실주공 521동 건너편,0,0,37.51184082,127.09568787,ST-550,2024-05-09 23:45:26
9,1233. 잠실3거리(갤러리아팰리스),5,56,37.51050949,127.09336853,ST-551,2024-05-09 23:45:26
14,1235. 잠실트리지움310동 옆,13,93,37.50887299,127.08716583,ST-553,2024-05-09 23:45:26
13,1239. 문정 법조단지3,0,0,37.48084259,127.11801147,ST-899,2024-05-09 23:45:26
10,1240. 문정 법조단지4,6,60,37.48057556,127.11856842,ST-900,2024-05-09 23:45:26
10,1241. 문정 법조단지5,8,80,37.48123932,127.11979675,ST-901,2024-05-09 23:45:26
10,1242. 문정 법조단지6,7,70,37.48163223,127.11916351,ST-902,2024-05-09 23:45:26
29,1243. 문정 법조단지7,3,10,37.48453140,127.12016296,ST-903,2024-05-09 23:45:26
11,1244. 문정 법조단지8,11,100,37.48153687,127.12212372,ST-904,2024-05-09 23:45:26
10,1245. 문정 법조단지9,1,10,37.47946548,127.12532806,ST-905,2024-05-09 23:45:26
30,1246. 문정 법조단지10,1,3,37.47750854,127.12632751,ST-906,2024-05-09 23:45:26
15,1247. 문정 법조단지11,5,33,37.47882080,127.12351227,ST-907,2024-05-09 23:45:26
25,1248. 방이초등학교,15,60,37.51396179,127.12167358,ST-908,2024-05-09 23:45:26
10,1250.문정2동 주민센터,10,100,37.48987198,127.11083984,ST-981,2024-05-09 23:45:26
10,1251. 석촌역 2번출구,10,100,37.50593185,127.10774994,ST-1070,2024-05-09 23:45:26
10,1253. 오금역 3번 출구 뒤,0,0,37.50165176,127.12818146,ST-1072,2024-05-09 23:45:26
8,1256. 문정현대아파트 교차로,3,38,37.49113083,127.12580872,ST-1075,2024-05-09 23:45:26
20,1257. 가락시장역 사거리,22,110,37.49209976,127.11775208,ST-1076,2024-05-09 23:45:26
10,1258. 가락미륭아파트 앞,1,10,37.49319839,127.12899780,ST-1077,2024-05-09 23:45:26
20,1259. 방이역 1번출구,30,150,37.50898361,127.12659454,ST-1078,2024-05-09 23:45:26
8,1260. 방이동 한양3차아파트 옆,20,250,37.50630188,127.12139893,ST-1079,2024-05-09 23:45:26
10,1262. 송파여성문화회관 앞,20,200,37.50580215,127.10971832,ST-1081,2024-05-09 23:45:26
10,1263. 장지공영차고지,18,180,37.48054123,127.13701630,ST-1082,2024-05-09 23:45:26
8,1264. 천호역 10번 출구 앞,1,13,37.53858185,127.12280273,ST-1083,2024-05-09 23:45:26
10,1266. 문정동 글샘 공원,4,40,37.47880936,127.12000275,ST-1085,2024-05-09 23:45:26
14,1267. 올림픽공원 남2문 앞,0,0,37.51424026,127.12306976,ST-1086,2024-05-09 23:45:26
15,1268. 몽촌토성역 1번출구 옆,0,0,37.51728821,127.11419678,ST-1087,2024-05-09 23:45:26
10,1269. 리센츠아파트 ,10,100,37.51194382,127.09121704,ST-1088,2024-05-09 23:45:26
15,1271. 송파도서관,2,13,37.49998474,127.13539124,ST-1089,2024-05-09 23:45:26
20,1274. 영파여고 앞,7,35,37.53284836,127.12104797,ST-1092,2024-05-09 23:45:26
15,1275. 거여초등학교 옆,35,233,37.50458908,127.13936615,ST-1367,2024-05-09 23:45:26
15,1277. 성내7교,29,193,37.50562668,127.13642120,ST-1408,2024-05-09 23:45:26
16,1278. 송파구청 교차로,0,0,37.51579666,127.10681915,ST-1409,2024-05-09 23:45:26
10,1279. 마천금호어울림 1차아파트 건너편,4,40,37.49751663,127.15467834,ST-1410,2024-05-09 23:45:26
13,1280. 송파파크데일 2단지입구 앞 주차장,9,69,37.49565887,127.15717316,ST-1411,2024-05-09 23:45:26
10,1282. 송파소방서 맞은편(성내4교),48,480,37.49987411,127.14147949,ST-1413,2024-05-09 23:45:26
8,1283. 오금공원 사거리,1,13,37.50541306,127.13169098,ST-1414,2024-05-09 23:45:26
10,1285. 위례별 유치원 뒤,16,160,37.47747040,127.14459229,ST-1416,2024-05-09 23:45:26
10,1286. 위례중앙푸르지오 1단지 앞,21,210,37.47437668,127.14067078,ST-1417,2024-05-09 23:45:26
8,1287. 위례아이파크 101동 맞은편,9,113,37.47746658,127.14151001,ST-1418,2024-05-09 23:45:26
15,1288. 문정중교 사거리,1,7,37.48799896,127.13108826,ST-1419,2024-05-09 23:45:26
10,1289. 풍납토성 서성벽터B,7,70,37.53147125,127.11109161,ST-1422,2024-05-09 23:45:26
10,1290. 위례송파꿈에그린아파트24단지 앞 성벽 다리 밑,45,450,37.47458267,127.13754272,ST-1579,2024-05-09 23:45:26
10,1291. 서울체육고등학교 앞,1,10,37.52193832,127.13186646,ST-1580,2024-05-09 23:45:26
14,1293. 석촌호수 서호 사거리,21,150,37.50656128,127.09655762,ST-1582,2024-05-09 23:45:26
8,1295. 잠실역 8번출구,0,0,37.51396179,127.10030365,ST-1584,2024-05-09 23:45:26
10,1296. 석촌호수교차로 (송파나루근린공원 앞),2,20,37.50867844,127.10343170,ST-1585,2024-05-09 23:45:26
15,1297. 석촌호수교차로(동호 팔각정 앞),3,20,37.50920105,127.10411835,ST-1586,2024-05-09 23:45:26
15,1299. 송파소방서 (방이119안전센터),3,20,37.51987839,127.13671112,ST-1588,2024-05-09 23:45:26
15,1300. 오륜사거리,19,127,37.50693893,127.13922119,ST-1589,2024-05-09 23:45:26
5,1302. 한성대입구역6번출구 뒤,0,0,37.58876419,127.00630951,ST-825,2024-05-09 23:45:26
10,1303. 돈암초교 입구,17,170,37.59169388,127.01249695,ST-931,2024-05-09 23:45:26
10,1304. 만해공원,0,0,37.59440231,126.99230957,ST-826,2024-05-09 23:45:26
15,1305. 성북구청,15,100,37.58932877,127.01643372,ST-947,2024-05-09 23:45:26
10,1306. 한성대입구역2번출구,1,10,37.58844757,127.00670624,ST-842,2024-05-09 23:45:26
16,1308. 안암로터리 버스정류장 앞,0,0,37.58259201,127.02897644,ST-827,2024-05-09 23:45:26
8,1314. 정릉꿈에그린1단지 201동 앞,8,100,37.60243988,127.01168823,ST-559,2024-05-09 23:45:26
10,1315. 고려사대부속중고 정문,1,10,37.60776138,127.00328064,ST-560,2024-05-09 23:45:26
10,1316. 고려사대부속중고 건너편 ,2,20,37.60726166,127.00283813,ST-562,2024-05-09 23:45:26
14,1318. 길음역 3번출구 뒤,6,43,37.60308456,127.02478790,ST-563,2024-05-09 23:45:26
10,1319. 종암사거리 분수대,13,130,37.60304260,127.03327179,ST-564,2024-05-09 23:45:26
14,1321. 국민은행 종암동지점 앞,21,150,37.59328842,127.03666687,ST-655,2024-05-09 23:45:26
10,1322. 래미안라센트아파트 103동 앞,32,320,37.59806824,127.03927612,ST-565,2024-05-09 23:45:26
10,1323. 월곡역 입구 육교 밑,34,340,37.60043335,127.04020691,ST-567,2024-05-09 23:45:26
10,1325. 상월곡역 4번출구,1,10,37.60580826,127.04773712,ST-571,2024-05-09 23:45:26
10,1326. 상월곡역 1번출구,3,30,37.60606766,127.04731750,ST-572,2024-05-09 23:45:26
10,1327. 상월곡역 3번출구,4,40,37.60734177,127.05068207,ST-574,2024-05-09 23:45:26
10,1328. 월곡역 3번출구,13,130,37.60262680,127.04163361,ST-910,2024-05-09 23:45:26
10,1332. 석계역 5번출구 건너편,13,130,37.61355591,127.06609344,ST-578,2024-05-09 23:45:26
20,1333. 석관초등학교 앞,35,175,37.61052322,127.05979919,ST-579,2024-05-09 23:45:26
10,1334. 석관동주민센터 앞,19,190,37.61299896,127.06130981,ST-580,2024-05-09 23:45:26
30,1336. 성북3교 위,18,60,37.59125137,127.01400757,ST-1200,2024-05-09 23:45:26
13,1337. 돈암성당 옆,18,138,37.59038162,127.01713562,ST-1201,2024-05-09 23:45:26
15,1338. 용문2교 옆,10,67,37.58689880,127.02075195,ST-1202,2024-05-09 23:45:26
9,1339. 삼성전자서비스 성북센터,21,233,37.61056900,127.03350830,ST-1203,2024-05-09 23:45:26
11,1340. 광운초등학교 앞,19,173,37.61784363,127.05500031,ST-1204,2024-05-09 23:45:26
10,1342. 성북쉼터 앞,1,10,37.59261703,126.99793243,ST-1206,2024-05-09 23:45:26
8,1343. 한성대7번출구 앞,0,0,37.58924866,127.00737762,ST-1207,2024-05-09 23:45:26
10,1344. 아리랑시네센터 앞,0,0,37.60028839,127.01370239,ST-1208,2024-05-09 23:45:26
15,1346. 길음8골어린이공원 옆,22,147,37.60897827,127.02024841,ST-1210,2024-05-09 23:45:26
10,1347. 길음래미안아파트817동 상가 앞,3,30,37.60710526,127.02149963,ST-1211,2024-05-09 23:45:26
12,1348. 성북제일새마을금고 본점 앞,17,142,37.60475159,127.02275848,ST-1212,2024-05-09 23:45:26
10,1349. 월계2교 버스정류장 앞,14,140,37.62382889,127.05020142,ST-1213,2024-05-09 23:45:26
8,1351. 안암2교 옆,6,75,37.57944870,127.02419281,ST-1215,2024-05-09 23:45:26
8,1352. e 편한세상 보문아파트 내,2,25,37.58388138,127.01709747,ST-1216,2024-05-09 23:45:26
8,1353. 금호어울림센터힐 내,11,138,37.60083008,127.02355194,ST-1217,2024-05-09 23:45:26
22,1354. 고려대학교 2번출구,3,14,37.59071350,127.03619385,ST-1317,2024-05-09 23:45:26
25,1355. 보문2교,23,92,37.58869934,127.01891327,ST-1347,2024-05-09 23:45:26
10,1357. 북한산보국문역,7,70,37.61207199,127.00813293,ST-1383,2024-05-09 23:45:26
7,1358. 정릉도서관 앞,7,100,37.60478973,127.01058197,ST-1384,2024-05-09 23:45:26
10,1360. 정릉역,7,70,37.60309601,127.01350403,ST-1386,2024-05-09 23:45:26
12,1362. 보문역6번출구 앞,6,50,37.58519745,127.01966858,ST-1454,2024-05-09 23:45:26
25,1363. 보문4교 인근,11,44,37.58375168,127.02194977,ST-1455,2024-05-09 23:45:26
10,1364. 성북동 치안센터 앞,5,50,37.59017181,127.00408936,ST-1456,2024-05-09 23:45:26
10,1365. 선잠단지 앞,1,10,37.59336090,126.99909210,ST-1457,2024-05-09 23:45:26
10,1366. 일신초등학교 옆,20,200,37.59972000,127.04038239,ST-1458,2024-05-09 23:45:26
10,1367. 길음문화복합미디어센터,20,200,37.60429764,127.02261353,ST-1459,2024-05-09 23:45:26
10,1368. 성신여대입구 교차로,6,60,37.59139633,127.02015686,ST-1460,2024-05-09 23:45:26
10,1370. 복자사랑 피정의 집,0,0,37.59453964,126.99520874,ST-1634,2024-05-09 23:45:26
20,1372. KEB은행 고대점,0,0,37.58644485,127.03160095,ST-1636,2024-05-09 23:45:26
8,1373. 성북구보건소 건너편,5,63,37.60235596,127.03907776,ST-1637,2024-05-09 23:45:26
20,1375. 생명의 전화 종합복지관 앞 교차로,22,110,37.60390854,127.03737640,ST-1723,2024-05-09 23:45:26
7,1376. 한국과학기술연구원 중문,0,0,37.59730911,127.04378510,ST-1745,2024-05-09 23:45:26
10,1377. 한국과학기술연구원 북문,0,0,37.60418701,127.04549408,ST-1746,2024-05-09 23:45:26
10,1380.월곡역 5번출구 앞,30,300,37.60108566,127.04123688,ST-2222,2024-05-09 23:45:26
18,1381.석계역 4번출구 뒤,10,56,37.61478424,127.06700134,ST-2223,2024-05-09 23:45:26
10,1382.래미안월곡아파트 입구,40,400,37.60866547,127.03627014,ST-2406,2024-05-09 23:45:26
13,1384.성신여대입구역 5번출구,23,177,37.59282684,127.01628876,ST-2225,2024-05-09 23:45:26
10,1385.성신여대입구역 3번출구 앞,9,90,37.59236526,127.01628876,ST-2226,2024-05-09 23:45:26
10,1386.동선고가차도 초입,4,40,37.59415817,127.01896667,ST-2227,2024-05-09 23:45:26
10,1388. 돈암초교입구 버스정류장(한성대입구역 방면),0,0,37.59088135,127.01170349,ST-2229,2024-05-09 23:45:26
10,1390.석관래미안아트리치,24,240,37.60646057,127.06162262,ST-2231,2024-05-09 23:45:26
10,1391.성북청소년센터,12,120,37.61688232,127.05606842,ST-2232,2024-05-09 23:45:26
10,1392.돈암삼성풍림아파트,0,0,37.59709930,127.02262878,ST-2233,2024-05-09 23:45:26
10,1393.돈암육교 하단,0,0,37.59818268,127.02117920,ST-2234,2024-05-09 23:45:26
10,1394.길음뉴타운 래미안9단지,20,200,37.60242462,127.01998138,ST-2235,2024-05-09 23:45:26
20,1395.래미안장위포레카운티(102동),15,75,37.61817932,127.05183411,ST-2236,2024-05-09 23:45:26
30,1396.래미안장위퍼스트하이(513동),60,200,37.61844254,127.05145264,ST-2237,2024-05-09 23:45:26
15,1401. 극동늘푸른아파트,44,293,37.61473846,127.07636261,ST-558,2024-05-09 23:45:26
10,1402. 금란주차장 앞,15,150,37.60007095,127.10233307,ST-561,2024-05-09 23:45:26
15,1403. 중화빌딩 앞 (동부시장),45,300,37.59424973,127.07657623,ST-566,2024-05-09 23:45:26
10,1404. 동일로 지하차도,4,40,37.59529877,127.08003235,ST-599,2024-05-09 23:45:26
10,1405. 망우역 1번출구,1,10,37.59909821,127.09294891,ST-568,2024-05-09 23:45:26
10,1407. 먹골역 1번출구 뒤,39,390,37.61151123,127.07788849,ST-847,2024-05-09 23:45:26
10,1408. 먹골역 6번출구 앞,37,370,37.61072159,127.07747650,ST-570,2024-05-09 23:45:26
10,1410. 면목 대원칸타빌아파트,19,190,37.57778168,127.09018707,ST-573,2024-05-09 23:45:26
10,1411. 상봉시장앞 교차로 한성빌딩 앞,8,80,37.59254074,127.08673859,ST-912,2024-05-09 23:45:26
10,1414. 사가정역 2번출구,13,130,37.58098984,127.08824158,ST-849,2024-05-09 23:45:26
8,1416. 상봉역 3번출구,34,425,37.59521866,127.08599854,ST-850,2024-05-09 23:45:26
10,1418. 새솔초등학교,0,0,37.61743927,127.10901642,ST-583,2024-05-09 23:45:26
15,1420. 신내어울공원 앞,1,7,37.61394501,127.09770203,ST-585,2024-05-09 23:45:26
13,1421. 신내역 4번출구,1,8,37.61246109,127.10337830,ST-586,2024-05-09 23:45:26
10,1422. 신내우디안아파트 1단지,1,10,37.62009811,127.10646057,ST-587,2024-05-09 23:45:26
10,1424. 양원역 2번출구,0,0,37.60631180,127.10774231,ST-588,2024-05-09 23:45:26
10,1425. 신성미소지움아파트,3,30,37.58745956,127.09597015,ST-589,2024-05-09 23:45:26
10,1426. 면목도시개발아파트 1동 앞,1,10,37.57358932,127.08682251,ST-590,2024-05-09 23:45:26
10,1427. 용마산역 1번출구,3,30,37.57429886,127.08691406,ST-852,2024-05-09 23:45:26
10,1428. 원묵고등학교,21,210,37.61602402,127.08596802,ST-853,2024-05-09 23:45:26
15,1429. 장안중학교,49,327,37.59995651,127.08000183,ST-854,2024-05-09 23:45:26
20,1430. 중랑구청,2,10,37.60615158,127.09259796,ST-855,2024-05-09 23:45:26
10,1431. 중랑구청 사거리,3,30,37.60649872,127.09545135,ST-856,2024-05-09 23:45:26
10,1433. 중화역 2번출구,37,370,37.60207748,127.07958221,ST-857,2024-05-09 23:45:26
10,1435. 능산삼거리,6,60,37.60868073,127.10079193,ST-593,2024-05-09 23:45:26
15,1436. 동원베네스트 건물 앞,7,47,37.60810089,127.10118103,ST-594,2024-05-09 23:45:26
15,1437. 늘푸른공원 앞,19,127,37.58341980,127.07992554,ST-595,2024-05-09 23:45:26
15,1438. 홈플러스 신내점 앞,32,213,37.61616898,127.09348297,ST-596,2024-05-09 23:45:26
10,1440. 면목2동 사거리,3,30,37.58637238,127.08007050,ST-942,2024-05-09 23:45:26
10,1441. 신내능말공원,8,80,37.61670685,127.11026001,ST-584,2024-05-09 23:45:26
8,1442. 중랑구청 중화동 별관 앞,34,425,37.59859085,127.07981873,ST-1093,2024-05-09 23:45:26
10,1444. 면목4치안센터,42,420,37.57402802,127.08054352,ST-1095,2024-05-09 23:45:26
10,1445. 용마지구대 A,19,190,37.57994080,127.07939911,ST-1096,2024-05-09 23:45:26
10,1446. 중랑전화국 교차로,54,540,37.59130096,127.08032990,ST-1097,2024-05-09 23:45:26
15,1447. 면목역 3번출구,9,60,37.58890152,127.08728027,ST-1098,2024-05-09 23:45:26
15,1448. 코스트코 상봉점,6,40,37.59732056,127.08979797,ST-1099,2024-05-09 23:45:26
15,1449. 상봉역 1번출구,2,13,37.59655762,127.08583832,ST-1332,2024-05-09 23:45:26
10,1450. 화랑대역 7번출구,22,220,37.61963654,127.08504486,ST-1333,2024-05-09 23:45:26
10,1451. 중랑세무서,38,380,37.59275818,127.07266998,ST-1334,2024-05-09 23:45:26
9,1453. 중랑캠핑숲,2,22,37.60460281,127.10925293,ST-1345,2024-05-09 23:45:26
10,1454. 한국전력공사(동대문 중랑지사),30,300,37.60734940,127.07859039,ST-1346,2024-05-09 23:45:26
10,1455. 상봉역 2번 출구,50,500,37.59632874,127.08589935,ST-1375,2024-05-09 23:45:26
10,1456. 상아빌딩(우림시장 교차로),23,230,37.59511185,127.10032654,ST-1380,2024-05-09 23:45:26
10,1457. 동원사거리,9,90,37.58975983,127.09323883,ST-1381,2024-05-09 23:45:26
9,1458. 상봉터미널2,21,233,37.59733963,127.09308624,ST-1451,2024-05-09 23:45:26
10,1459. 용마한신아파트사거리,19,190,37.58034897,127.09265137,ST-1452,2024-05-09 23:45:26
12,1461.동양엔파트 앞,47,392,37.59385300,127.07507324,ST-2282,2024-05-09 23:45:26
9,1462.동부시장 북문 앞,25,278,37.59386826,127.07652283,ST-2283,2024-05-09 23:45:26
10,1463.중랑구민회관,12,120,37.57407761,127.08500671,ST-2284,2024-05-09 23:45:26
15,1464.중화역 4번출구,47,313,37.60305405,127.07900238,ST-2285,2024-05-09 23:45:26
10,1466.두산대림아파트 삼거리,34,340,37.61882401,127.08757019,ST-2287,2024-05-09 23:45:26
10,1467.sk신내 주유소앞(용마산로),21,210,37.61362076,127.10115051,ST-2288,2024-05-09 23:45:26
6,1468.먹골역 7번 출구,3,50,37.61147690,127.07739258,ST-2289,2024-05-09 23:45:26
20,1469.먹골역 4번출구,83,415,37.60982132,127.07813263,ST-2290,2024-05-09 23:45:26
20,1470.중화동 우리은행 앞,62,310,37.60520172,127.07858276,ST-2291,2024-05-09 23:45:26
10,1471.동양쇼핑 정류소 앞,15,150,37.61535263,127.07849121,ST-2292,2024-05-09 23:45:26
8,1472.영성빌딩(PAT),3,38,37.60408401,127.07923126,ST-2293,2024-05-09 23:45:26
10,1473.중랑역 1번 출구(중화문화복지센터),19,190,37.59489059,127.07495117,ST-2294,2024-05-09 23:45:26
10,1477.면목삼익아파트 앞,10,100,37.57598495,127.07960510,ST-2298,2024-05-09 23:45:26
15,1478.홈플러스 상봉점 앞,2,13,37.59832764,127.09226990,ST-2299,2024-05-09 23:45:26
10,1479.면목 홈플러스 2 ,61,610,37.58105469,127.08209229,ST-2300,2024-05-09 23:45:26
15,1480. 용마지구대 B,41,273,37.58111191,127.08010101,ST-2301,2024-05-09 23:45:26
9,"1501. 미아역 3번,4번 출구 사이",5,56,37.62607956,127.02648163,ST-948,2024-05-09 23:45:26
14,1503. 강북구청사거리(수유역 8번출구),5,36,37.63926315,127.02672577,ST-643,2024-05-09 23:45:26
10,1504. 삼양시장오거리,1,10,37.62415695,127.01862335,ST-644,2024-05-09 23:45:26
15,1506. 강북문화예술회관,27,180,37.64032745,127.01335907,ST-645,2024-05-09 23:45:26
10,1509. 서울북부수도사업소,4,40,37.63437653,127.03575134,ST-859,2024-05-09 23:45:26
10,1510. 번동주공5단지 관리사무소 앞,8,80,37.63371658,127.03551483,ST-860,2024-05-09 23:45:26
9,1511. 번동 금호어울림아파트102동앞,20,222,37.63112259,127.03603363,ST-861,2024-05-09 23:45:26
20,1512. 강북중학교 앞,30,150,37.64473724,127.02656555,ST-862,2024-05-09 23:45:26
20,1513. 강북구청 뒷편,1,5,37.63967133,127.02519989,ST-863,2024-05-09 23:45:26
10,1514. 강북구청 사거리 버스정류소 앞,2,20,37.63880539,127.02835846,ST-646,2024-05-09 23:45:26
10,1515. 송천동 주민센터,2,20,37.61828613,127.02404785,ST-648,2024-05-09 23:45:26
10,1516. 우이초등학교 후문 옆,9,90,37.63858795,127.01590729,ST-652,2024-05-09 23:45:26
10,1518. 수유2동은행빌딩 앞,2,20,37.64308548,127.01616669,ST-654,2024-05-09 23:45:26
10,1519. 장미원시장 건너편,16,160,37.64545059,127.01561737,ST-651,2024-05-09 23:45:26
7,1520. 수유중앙시장,18,257,37.63986206,127.02278900,ST-650,2024-05-09 23:45:26
10,1525. 미아동 복합청사,1,10,37.62714005,127.02669525,ST-647,2024-05-09 23:45:26
8,1526. 강북종합시장 앞,1,13,37.64173889,127.02462769,ST-1100,2024-05-09 23:45:26
10,1527. 미아역 1번 출구 뒤,0,0,37.62733459,127.02605438,ST-1101,2024-05-09 23:45:26
10,1528. 삼각산동 주민센터,9,90,37.61503601,127.02069855,ST-1102,2024-05-09 23:45:26
15,1529. 미아동 한국전력공사,11,73,37.63018036,127.02490997,ST-1103,2024-05-09 23:45:26
13,1530. 광산사거리,19,146,37.64355087,127.02234650,ST-1104,2024-05-09 23:45:26
10,1531. 미아사거리 1번 출구,2,20,37.61395645,127.03025055,ST-1105,2024-05-09 23:45:26
10,1532. 번3동 주민센터 교차로,18,180,37.62635422,127.04744720,ST-1106,2024-05-09 23:45:26
10,"1533. 번동 주공3, 4단지 교차로",16,160,37.62991714,127.04091644,ST-1107,2024-05-09 23:45:26
10,1535. 효성인텔리안 앞,2,20,37.63629150,127.02337646,ST-1109,2024-05-09 23:45:26
20,1536. 번동 두산위브 101동 옆,11,55,37.63626099,127.03217316,ST-1110,2024-05-09 23:45:26
10,1537. 북한산 우이역,6,60,37.66366577,127.01242828,ST-1387,2024-05-09 23:45:26
8,1538. 솔밭공원역,2,25,37.65615845,127.01313782,ST-1388,2024-05-09 23:45:26
10,1539. 4.19민주묘지역,10,100,37.64967346,127.01345062,ST-1389,2024-05-09 23:45:26
8,1540. 가오리역,9,113,37.64167023,127.01688385,ST-1390,2024-05-09 23:45:26
10,1541. 삼양역,5,50,37.62652969,127.01805878,ST-1391,2024-05-09 23:45:26
10,1542. 삼양사거리역,2,20,37.62155151,127.02037048,ST-1392,2024-05-09 23:45:26
10,1543. 수유1동 주민센터,4,40,37.63018799,127.01773834,ST-1423,2024-05-09 23:45:26
10,1546. 송천동우체국,8,80,37.61545944,127.02970123,ST-1665,2024-05-09 23:45:26
10,1547. 꿈의숲 롯데캐슬,4,40,37.61775208,127.03570557,ST-1724,2024-05-09 23:45:26
15,1548. 북서울 꿈의숲 서문,5,33,37.62268829,127.03781128,ST-1725,2024-05-09 23:45:26
10,1550.삼각산아이원아파트(105동 옆),0,0,37.61522293,127.01850891,ST-2123,2024-05-09 23:45:26
8,1551.4.19탑 앞,6,75,37.64686203,127.00881195,ST-2124,2024-05-09 23:45:26
8,1552. 강북구청사거리,1,13,37.63920212,127.02723694,ST-2125,2024-05-09 23:45:26
15,1553.서울북부고용노동지청,1,7,37.63520432,127.03396606,ST-2126,2024-05-09 23:45:26
10,1554.번동사거리,7,70,37.63539124,127.03455353,ST-2127,2024-05-09 23:45:26
10,1557.신창교,15,150,37.63238144,127.03930664,ST-2129,2024-05-09 23:45:26
10,1558.강북문화정보도서관,2,20,37.62552643,127.03732300,ST-2130,2024-05-09 23:45:26
10,1560. 도봉세무서 앞,19,190,37.61980820,127.02852631,ST-2132,2024-05-09 23:45:26
7,1564.4.19민주묘지역 1번출구,1,14,37.64959717,127.01384735,ST-2133,2024-05-09 23:45:26
15,1565.수유사거리,26,173,37.63561249,127.02299500,ST-2134,2024-05-09 23:45:26
10,1568.4.19민주묘지 입구사거리,13,130,37.64793396,127.01457214,ST-2136,2024-05-09 23:45:26
10,1569.수유역2번출구,0,0,37.63796997,127.02590179,ST-2137,2024-05-09 23:45:26
10,1571.북서울 꿈의 숲 입구,15,150,37.62673187,127.03877258,ST-2401,2024-05-09 23:45:26
10,1572. 우이동 먹거리마을,0,0,37.66446304,127.01184082,ST-2402,2024-05-09 23:45:26
10,1573.현대성우아파트 옆,2,20,37.61666489,127.02210999,ST-2403,2024-05-09 23:45:26
8,1574.송중초등학교 옆,16,200,37.61669922,127.03049469,ST-2405,2024-05-09 23:45:26
10,1601. 석계역 문화광장 내 자전거 보관소,2,20,37.61518097,127.06464386,ST-600,2024-05-09 23:45:26
13,1602. 광운대역 앞,23,177,37.62266159,127.06189728,ST-913,2024-05-09 23:45:26
10,1605. 헬스케어,27,270,37.63162231,127.06161499,ST-866,2024-05-09 23:45:26
10,1606. 태릉입구역 3번출구 ,27,270,37.61917114,127.07492828,ST-602,2024-05-09 23:45:26
10,1608. 공릉역 1번 출구 앞,18,180,37.62661362,127.07275391,ST-735,2024-05-09 23:45:26
20,1610. 화랑대역 2번출구 앞,20,100,37.62036896,127.08364105,ST-603,2024-05-09 23:45:26
20,1611. 과기대 입구(우),4,20,37.62994003,127.07655334,ST-604,2024-05-09 23:45:26
10,1616. 하계2동 공항버스정류장 옆,5,50,37.63510895,127.06832886,ST-605,2024-05-09 23:45:26
10,1619. 중계동 하나프라자빌딩 앞(중1-1),0,0,37.64902115,127.07640839,ST-736,2024-05-09 23:45:26
10,1620. 중계동 노원구민체육센터 옆(중1-2),10,100,37.64820862,127.07022095,ST-867,2024-05-09 23:45:26
20,1625. 상계역 3번출구,4,20,37.65999985,127.07296753,ST-914,2024-05-09 23:45:26
12,1627. 수락산역 4번출구,1,8,37.67694092,127.05509949,ST-915,2024-05-09 23:45:26
5,1628. 노일초등학교 앞,8,160,37.67361832,127.05525208,ST-868,2024-05-09 23:45:26
10,1630. 수연빌딩 앞,2,20,37.67625046,127.05550385,ST-869,2024-05-09 23:45:26
15,1634. 당고개공원 대여소,7,47,37.66846085,127.07714844,ST-608,2024-05-09 23:45:26
6,"1635. 상계3,4동 주민센터 대여소",7,117,37.67271042,127.08316040,ST-609,2024-05-09 23:45:26
10,1636. 상계주공2단지 버스정류장 옆,0,0,37.64921188,127.06176758,ST-610,2024-05-09 23:45:26
9,1637. KT 전화국 버스정류장 옆,1,11,37.65470123,127.06340027,ST-611,2024-05-09 23:45:26
10,1639. 희성오피앙,12,120,37.68031311,127.05506897,ST-612,2024-05-09 23:45:26
9,1640. 한내근린공원 북측,30,333,37.62386322,127.06848907,ST-971,2024-05-09 23:45:26
15,1641. 한내근린공원 남측,11,73,37.62155533,127.06951141,ST-970,2024-05-09 23:45:26
7,1642. 서울여대 남문,0,0,37.62531662,127.08813477,ST-964,2024-05-09 23:45:26
10,1646. 삼육대 입구,14,140,37.63848877,127.10790253,ST-1114,2024-05-09 23:45:26
25,1650. 중계근린공원내,34,136,37.63957977,127.06510162,ST-1118,2024-05-09 23:45:26
20,1651. 상계동 우방유쉘아파트 앞,23,115,37.67237473,127.05599213,ST-1119,2024-05-09 23:45:26
10,1652. 파르코 앞,2,20,37.68000031,127.05558014,ST-1120,2024-05-09 23:45:26
10,1653. 노원역1번출구,2,20,37.65620041,127.06362152,ST-1121,2024-05-09 23:45:26
15,1654. 당고개입구 오거리,10,67,37.66379166,127.07544708,ST-1122,2024-05-09 23:45:26
15,1655. 공릉1단지아파트,43,287,37.63111115,127.07015991,ST-1123,2024-05-09 23:45:26
12,1656. 중앙하이츠 아파트 입구,16,133,37.65501785,127.06750488,ST-1124,2024-05-09 23:45:26
20,1657. 노원구청 ,0,0,37.65404892,127.05732727,ST-1125,2024-05-09 23:45:26
10,1659. 중계동 을지중학교,8,80,37.65032959,127.07160187,ST-1127,2024-05-09 23:45:26
8,1660. 서울시립과학관,9,113,37.64207077,127.07662201,ST-1128,2024-05-09 23:45:26
10,1661. 당현천근린공원,7,70,37.64963913,127.06560516,ST-1278,2024-05-09 23:45:26
20,1662. 노원역7번출구,0,0,37.65421677,127.05921173,ST-1279,2024-05-09 23:45:26
25,1663. 동해문화예술관앞,11,44,37.61938095,127.05785370,ST-1280,2024-05-09 23:45:26
10,1665. 양지근린공원앞,9,90,37.64699554,127.07640076,ST-1282,2024-05-09 23:45:26
10,1666. 노원소방서인근,7,70,37.65578079,127.07177734,ST-1283,2024-05-09 23:45:26
10,1667. 중계중학교,14,140,37.65449905,127.07438660,ST-1284,2024-05-09 23:45:26
10,1668. 중계역 6번출구,0,0,37.64556503,127.06334686,ST-1285,2024-05-09 23:45:26
9,1669. 중계역 3번출구,7,78,37.64352798,127.06522369,ST-1286,2024-05-09 23:45:26
20,1670. 노원경찰서교차로,2,10,37.64340973,127.07183838,ST-1287,2024-05-09 23:45:26
15,1671. 인덕대학교,17,113,37.62934875,127.05482483,ST-1288,2024-05-09 23:45:26
15,1672. 상계동수락리버시티,17,113,37.68859863,127.05340576,ST-1289,2024-05-09 23:45:26
15,1674. 서울북부고용센터앞,0,0,37.65354919,127.05808258,ST-1291,2024-05-09 23:45:26
9,1675. 월계문화체육센터,8,89,37.62694168,127.05513000,ST-1348,2024-05-09 23:45:26
10,1678. 성서대학교 밀알관,5,50,37.64843750,127.06444550,ST-1394,2024-05-09 23:45:26
10,1679. 삼육대 도서관,1,10,37.64282990,127.10666656,ST-1395,2024-05-09 23:45:26
7,1680. 삼육대 제3과학관,6,86,37.64265442,127.10838318,ST-1396,2024-05-09 23:45:26
12,1681. 현대6차 아파트,18,150,37.64580154,127.08226013,ST-1425,2024-05-09 23:45:26
13,1682. 중계종합사회복지관 교차로,0,0,37.65745544,127.07554626,ST-1426,2024-05-09 23:45:26
5,1683. 노원문화예술회관,12,240,37.65045929,127.08088684,ST-1473,2024-05-09 23:45:26
20,1684. 태릉입구역 5번출구,17,85,37.61832047,127.07563019,ST-1474,2024-05-09 23:45:26
8,1685. 불암고등학교 앞 횡단보도,13,163,37.64818954,127.08048248,ST-1475,2024-05-09 23:45:26
15,1686. 상계주공10단지 종합상가 앞,38,253,37.66114044,127.05805206,ST-1476,2024-05-09 23:45:26
9,1688. 마들역 7번출구,0,0,37.66566086,127.05729675,ST-1639,2024-05-09 23:45:26
10,1689. 마들역 3번출구,7,70,37.66524887,127.05789185,ST-1640,2024-05-09 23:45:26
10,1690. 도봉운전면허시험장 버스정류장 옆,1,10,37.65773010,127.05931091,ST-1641,2024-05-09 23:45:26
10,1691. 노원정보도서관,3,30,37.66070938,127.06533051,ST-1642,2024-05-09 23:45:26
10,1692. 온곡초교 교차로,5,50,37.66418839,127.06600952,ST-1672,2024-05-09 23:45:26
10,1693. 원자력 병원,1,10,37.62818909,127.08210754,ST-1740,2024-05-09 23:45:26
10,1696.수락리버시티4단지,13,130,37.68645096,127.05283356,ST-2062,2024-05-09 23:45:26
10,1697.상계주공2단지 219동,39,390,37.65024948,127.05715179,ST-2063,2024-05-09 23:45:26
10,1702. 녹천역 1번출구 앞,14,140,37.64582062,127.05042267,ST-613,2024-05-09 23:45:26
10,1703. 도봉산광역환승센터앞 ,1,10,37.68972015,127.04519653,ST-657,2024-05-09 23:45:26
8,1705. 도봉구청 정문앞,10,125,37.66922379,127.04651642,ST-614,2024-05-09 23:45:26
10,1706. 방학동우체국 건너편,13,130,37.66566467,127.04267120,ST-916,2024-05-09 23:45:26
20,1707. 도봉구민회관,20,100,37.65446091,127.03851318,ST-615,2024-05-09 23:45:26
7,1708. 도봉보건소사거리,8,114,37.65682983,127.03984833,ST-658,2024-05-09 23:45:26
17,1709. 쌍문역4번출구 주변,4,24,37.65012741,127.03534698,ST-616,2024-05-09 23:45:26
10,1713. 쌍문동 이안아파트 앞,8,80,37.65165329,127.02848816,ST-1129,2024-05-09 23:45:26
10,1714. 도봉문화정보도서관 삼거리,4,40,37.64463043,127.04460907,ST-1130,2024-05-09 23:45:26
20,1715. 서울특별시교육청도봉도서관,20,100,37.65317917,127.01278687,ST-1131,2024-05-09 23:45:26
10,1716. 창동역 1번출구 건너편,0,0,37.65420151,127.05072784,ST-1132,2024-05-09 23:45:26
10,1719. 신도봉사거리 버스정류장,27,270,37.67328262,127.04399109,ST-1135,2024-05-09 23:45:26
27,1720. 도봉구청 옆(중랑천변),34,126,37.66867065,127.04798126,ST-1136,2024-05-09 23:45:26
12,1721. 창동역 2번출구 ,0,0,37.65301514,127.04699707,ST-1137,2024-05-09 23:45:26
15,1722. 창동청소년수련관,4,27,37.65779877,127.05004883,ST-1292,2024-05-09 23:45:26
10,1723. 방학동학마을도서관,6,60,37.66207886,127.02771759,ST-1293,2024-05-09 23:45:26
10,1725. 창1동주민센터,24,240,37.64750290,127.04331207,ST-1295,2024-05-09 23:45:26
8,1726. 삼익세라믹아파트교차로,10,125,37.65858841,127.03520966,ST-1296,2024-05-09 23:45:26
15,1727. 서울도봉초등학교인근,23,153,37.67867661,127.04076385,ST-1297,2024-05-09 23:45:26
10,1728. 서울북부지방법원,4,40,37.67771912,127.04681396,ST-1434,2024-05-09 23:45:26
8,1729. 도봉한신아파트 버스정류장,22,275,37.68400955,127.04579163,ST-1461,2024-05-09 23:45:26
8,1730. 도봉산역 교차로 앞,11,138,37.68759155,127.04550171,ST-1462,2024-05-09 23:45:26
10,1731. 도봉고등학교 맞은편,14,140,37.68762970,127.04221344,ST-1463,2024-05-09 23:45:26
10,1732. 방학역사거리,26,260,37.66759872,127.04299927,ST-1464,2024-05-09 23:45:26
12,1733. 방학사거리 (봄마당 앞),7,58,37.66297913,127.04193878,ST-1465,2024-05-09 23:45:26
10,1734. 쌍문현대1차아파트 108동 앞,22,220,37.65814972,127.03266907,ST-1466,2024-05-09 23:45:26
13,"1735. 도봉역 1,2번 출구사이 건너편",14,108,37.67911911,127.04498291,ST-1467,2024-05-09 23:45:26
12,1736. 버스정류장 앞,2,17,37.65224075,127.03706360,ST-1468,2024-05-09 23:45:26
10,1737. 신창시장,42,420,37.63970184,127.03883362,ST-1469,2024-05-09 23:45:26
10,1738. 창동주공17단지 상가앞,15,150,37.64630890,127.05274200,ST-1470,2024-05-09 23:45:26
20,1741. 제일강산수산입구,3,15,37.64519882,127.03298187,ST-1638,2024-05-09 23:45:26
10,1742. 북한산 코오롱 하늘채,26,260,37.64889145,127.02301788,ST-1726,2024-05-09 23:45:26
10,1743.창동19단지아파트 관리사무소앞,23,230,37.65039062,127.05219269,ST-2088,2024-05-09 23:45:26
15,1744.도봉소방서 옆,7,47,37.66480255,127.04302979,ST-2089,2024-05-09 23:45:26
10,1749. ESA아파트 상가 앞,6,60,37.66627121,127.04598999,ST-2094,2024-05-09 23:45:26
12,1750. 창포원 남쪽 입구,4,33,37.68826675,127.04889679,ST-2095,2024-05-09 23:45:26
15,1751. 창원초등학교 교차로,17,113,37.65212250,127.04170227,ST-2096,2024-05-09 23:45:26
6,1752. 창동 주공 4단지 입구 옆,24,400,37.64548111,127.04857635,ST-2097,2024-05-09 23:45:26
11,1754. 창동시장입구 사거리,0,0,37.64689636,127.03343201,ST-2099,2024-05-09 23:45:26
10,1756.서울북부광역등기국,6,60,37.65148544,127.04431915,ST-2101,2024-05-09 23:45:26
10,1757.솔밭공원역 1번출구 앞,13,130,37.65568542,127.01338196,ST-2102,2024-05-09 23:45:26
10,1758.솔밭공원역 1번출구 주변,18,180,37.65727997,127.01375580,ST-2103,2024-05-09 23:45:26
10,1759.서울북부지방법원 앞,17,170,37.67721939,127.04863739,ST-2104,2024-05-09 23:45:26
10,1761.방학중학교 앞,9,90,37.66562271,127.03108978,ST-2106,2024-05-09 23:45:26
25,1762.북한산 한신휴플러스APT앞,41,164,37.65533829,127.04241943,ST-2107,2024-05-09 23:45:26
13,1765.쌍문역 1번출구 주변,0,0,37.64966965,127.03561401,ST-2110,2024-05-09 23:45:26
10,1767.방학초등학교 앞,14,140,37.66250992,127.03327942,ST-2112,2024-05-09 23:45:26
8,1768.신동아타워 버스정류소,8,100,37.66208267,127.02874756,ST-2113,2024-05-09 23:45:26
15,1770.도봉한신아파트 주변,13,87,37.68473816,127.05004120,ST-2115,2024-05-09 23:45:26
15,1771.성원APT버스정류소,16,107,37.65796661,127.03009033,ST-2116,2024-05-09 23:45:26
13,1772.시립도봉노인복지관 버스정류소,12,92,37.65805054,127.03575897,ST-2117,2024-05-09 23:45:26
8,1774.정의여중고 버스정류소,13,163,37.65134811,127.03472900,ST-2119,2024-05-09 23:45:26
15,1775.신원리베르텔 앞,6,40,37.65128708,127.04554749,ST-2120,2024-05-09 23:45:26
10,1804. 독산역 2번출구 자전거주차장,4,40,37.46652985,126.88871765,ST-619,2024-05-09 23:45:26
10,1805. 서울디지털운동장 앞,5,50,37.48228836,126.87776947,ST-620,2024-05-09 23:45:26
10,1806. 에이스하이엔드타워9차 앞,0,0,37.48621368,126.87863922,ST-621,2024-05-09 23:45:26
20,1808. 에이스하이엔드타워8차 앞,0,0,37.47320938,126.88494110,ST-622,2024-05-09 23:45:26
10,1809. LG전자 별관동(호서대 벤처타워 맞은편),5,50,37.47077942,126.88515472,ST-623,2024-05-09 23:45:26
10,1812. 갑을그레이트밸리 앞,20,200,37.47903061,126.88729858,ST-624,2024-05-09 23:45:26
8,1814. 두산위브아파트 옆 상가건물 앞,30,375,37.47422028,126.89412689,ST-625,2024-05-09 23:45:26
10,1820. 신한은행 시흥대로금융센터지점,10,100,37.44334030,126.90335846,ST-628,2024-05-09 23:45:26
10,1821. 홈플러스 시흥점 맞은편 다비치안경 앞,10,100,37.45145798,126.90211487,ST-629,2024-05-09 23:45:26
10,1822. 서울 시흥동우체국 앞,12,120,37.45299149,126.90090942,ST-630,2024-05-09 23:45:26
10,1823. 상신정비공업 앞,0,0,37.45891190,126.89859009,ST-631,2024-05-09 23:45:26
25,1824. 독산근린공원 입구,27,108,37.46455002,126.88372803,ST-632,2024-05-09 23:45:26
10,1825. 한신아파트 앞 육교 아래,19,190,37.45470047,126.89105225,ST-633,2024-05-09 23:45:26
10,1826. 한신코아 앞,16,160,37.45684052,126.88834381,ST-634,2024-05-09 23:45:26
20,1827. 독산보도육교 앞 자전거 보관소,19,95,37.45672607,126.89306641,ST-660,2024-05-09 23:45:26
10,1828. 한양수자인아파트 앞,2,20,37.47531891,126.89888763,ST-635,2024-05-09 23:45:26
10,1829. 홈플러스 금천점 앞,23,230,37.46913910,126.89720154,ST-636,2024-05-09 23:45:26
19,1830. 빅마켓 금천점 앞,54,284,37.47023010,126.89507294,ST-637,2024-05-09 23:45:26
10,1831. 한국전력 구로금천지사 앞,11,110,37.47249985,126.89795685,ST-638,2024-05-09 23:45:26
10,1833. 독산역 1번출구 A,1,10,37.46654129,126.89028168,ST-639,2024-05-09 23:45:26
10,1834. 월드메르디앙 벤처센터 2차,4,40,37.47908401,126.87904358,ST-640,2024-05-09 23:45:26
10,1835. STX V타워,2,20,37.47706985,126.88442993,ST-641,2024-05-09 23:45:26
7,1836. 금천구립 독산도서관,17,243,37.46740341,126.90814209,ST-661,2024-05-09 23:45:26
20,1839. 수출의 다리 아래,4,20,37.47743607,126.88615417,ST-1140,2024-05-09 23:45:26
20,1840. 솔브레인이엔지 뒤편,19,95,37.47555161,126.88845825,ST-1141,2024-05-09 23:45:26
12,1841. 가산동 주민센터,36,300,37.47695160,126.89186859,ST-1142,2024-05-09 23:45:26
12,1842. 한울중학교,12,100,37.46257401,126.90686035,ST-1143,2024-05-09 23:45:26
10,1843. 독산고등학교,12,120,37.47709656,126.91113281,ST-1144,2024-05-09 23:45:26
15,1845. 롯데캐슬골드파크1차 서문,28,187,37.46028900,126.89218903,ST-1146,2024-05-09 23:45:26
15,1846. 롯데캐슬골드파크1차 동문,28,187,37.46017075,126.89604187,ST-1147,2024-05-09 23:45:26
10,1847. 독산주공 14단지 버스정류소,8,80,37.46093369,126.88716888,ST-1148,2024-05-09 23:45:26
9,1848. 벽산 디지털밸리 5차,0,0,37.47627640,126.88539124,ST-1149,2024-05-09 23:45:26
10,1849. 대륭포스트타워5차,7,70,37.48135376,126.88694000,ST-1276,2024-05-09 23:45:26
10,1850. 코오롱테크노밸리,0,0,37.48015976,126.88636780,ST-1277,2024-05-09 23:45:26
10,1851. 가산디지털단지 9번출구 인근,0,0,37.48123169,126.88148499,ST-1403,2024-05-09 23:45:26
10,1853. 서울디자인직업전문학교 앞,10,100,37.47248077,126.89586639,ST-1534,2024-05-09 23:45:26
10,1854. 가산아네스트 오피스텔 앞,32,320,37.47817993,126.89740753,ST-1535,2024-05-09 23:45:26
10,1855. 성지아파트 옆 도로변,5,50,37.45132065,126.89762115,ST-1536,2024-05-09 23:45:26
10,1856. 모두의학교,15,150,37.47840881,126.90737152,ST-1537,2024-05-09 23:45:26
10,1857. 주공14단지,7,70,37.46055984,126.88709259,ST-1538,2024-05-09 23:45:26
10,"1858. 500번,507번 버스 종점 앞",19,190,37.43727112,126.90268707,ST-1648,2024-05-09 23:45:26
13,1859. 대륭테크노타운 18차,4,31,37.46799850,126.88684082,ST-1734,2024-05-09 23:45:26
10,1861.IBK기업은행 석수역 지점 앞,5,50,37.43698120,126.90329742,ST-1932,2024-05-09 23:45:26
20,1862.스타즈호텔독산 빌딩 앞,27,135,37.46134567,126.89758301,ST-1933,2024-05-09 23:45:26
9,1863.위너스 스포츠클럽 골프연습장옆,9,100,37.46053696,126.89860535,ST-1934,2024-05-09 23:45:26
15,1864.산호시티빌 옆,11,73,37.45652008,126.89955139,ST-1935,2024-05-09 23:45:26
10,1866.서울안천초등학교 옆,1,10,37.45777893,126.88942719,ST-1937,2024-05-09 23:45:26
30,1867.대륭포스트타워6차 앞,0,0,37.48088837,126.88380432,ST-1938,2024-05-09 23:45:26
10,1868.우리은행 시흥남자동화점 앞,12,120,37.44785309,126.90288544,ST-1939,2024-05-09 23:45:26
15,1869.롯데캐슬골드파크3차 301동 앞,43,287,37.45901871,126.89671326,ST-1940,2024-05-09 23:45:26
8,1870.독산3동주민센터 앞,5,63,37.47507095,126.90335846,ST-1941,2024-05-09 23:45:26
10,1901. 신도림동주민센터 앞,23,230,37.50733185,126.87973022,ST-662,2024-05-09 23:45:26
10,1904. 도림천역 1번 출구 앞,4,40,37.51424026,126.88287354,ST-663,2024-05-09 23:45:26
20,1906. 신도림역 1번 출구 앞,1,5,37.50971985,126.89009857,ST-664,2024-05-09 23:45:26
12,1907. 구일우성(아) 육교 밑,10,83,37.48963165,126.87625885,ST-665,2024-05-09 23:45:26
12,1908. 해원리바파크 육교 밑,11,92,37.49528503,126.87216187,ST-666,2024-05-09 23:45:26
5,1910. 낙원교회 맞은편,7,140,37.49750519,126.88437653,ST-667,2024-05-09 23:45:26
18,1911. 구로디지털단지역 앞,0,0,37.48493958,126.90132141,ST-668,2024-05-09 23:45:26
13,1912. 한신휴아파트 앞,33,254,37.48880005,126.89066315,ST-669,2024-05-09 23:45:26
10,1914. 대림역4번출구,3,30,37.49440384,126.89444733,ST-918,2024-05-09 23:45:26
10,1916. 구로중학교앞,5,50,37.49414062,126.88998413,ST-671,2024-05-09 23:45:26
14,1920. 서울미래초등학교 사거리,3,21,37.50437927,126.88829803,ST-673,2024-05-09 23:45:26
10,1924. 삼부르네상스파크빌,26,260,37.47874069,126.89509583,ST-674,2024-05-09 23:45:26
20,1925. 동양미래대학교 정문 옆,19,95,37.49988937,126.86769867,ST-919,2024-05-09 23:45:26
10,1928. 고척스카이돔구장 광장,0,0,37.49946976,126.86840057,ST-675,2024-05-09 23:45:26
10,1929. 고척근린공원 고척도서관 앞,15,150,37.50381470,126.85195923,ST-676,2024-05-09 23:45:26
7,1930. 개봉지구대 개봉치안센터,5,71,37.49768448,126.85372925,ST-677,2024-05-09 23:45:26
10,1931. 개봉역2번출구 A,19,190,37.49499512,126.85825348,ST-920,2024-05-09 23:45:26
16,1933. 개봉푸르지오아파트 상가,89,556,37.50170517,126.84728241,ST-678,2024-05-09 23:45:26
10,1936. 개봉역 1번 출구 자전거보관서쪽,32,320,37.49428177,126.85921478,ST-870,2024-05-09 23:45:26
15,1937. 한진아파트 입구,6,40,37.48606110,126.85201263,ST-679,2024-05-09 23:45:26
10,1941. 오류동역 2번출구,20,200,37.49367142,126.84370422,ST-871,2024-05-09 23:45:26
10,1943. 온수역 북측,13,130,37.49279022,126.82452393,ST-872,2024-05-09 23:45:26
10,1946. 구로역 광장,0,0,37.50311661,126.88038635,ST-873,2024-05-09 23:45:26
15,1951. 천왕이펜하우스 4단지 후문,22,147,37.48070526,126.83895874,ST-874,2024-05-09 23:45:26
20,1952. 천왕연지타운2단지 앞,47,235,37.48210526,126.84572601,ST-875,2024-05-09 23:45:26
20,1953. 천왕역 4번출구 뒤,1,5,37.48638535,126.83921051,ST-876,2024-05-09 23:45:26
10,1955. 디지털입구 교차로,4,40,37.48288345,126.90103912,ST-936,2024-05-09 23:45:26
15,1956. 동아1차APT105동 버스정류장(신도림중학교 방면),24,160,37.51000977,126.88204956,ST-1218,2024-05-09 23:45:26
15,1957. 구일고등학교 정문 ,48,320,37.49340057,126.87432861,ST-1219,2024-05-09 23:45:26
15,1958. 강서수도사업소민원센터,42,280,37.49578094,126.89012146,ST-1220,2024-05-09 23:45:26
10,1959. 구로구의회 앞,8,80,37.49645615,126.88958740,ST-1221,2024-05-09 23:45:26
10,1960. 구로거리공원 동측(신도림역 방면),11,110,37.50284958,126.88948059,ST-1222,2024-05-09 23:45:26
15,1961. 신도림테크노근린공원,0,0,37.50818253,126.89133453,ST-1223,2024-05-09 23:45:26
15,1962. 가리봉동주민센터,7,47,37.48160172,126.89279938,ST-1224,2024-05-09 23:45:26
10,1964. 원메디타운 앞,13,130,37.49789047,126.86450195,ST-1226,2024-05-09 23:45:26
15,1965. 삼환로즈빌아파트 105동 옆,32,213,37.49724197,126.85912323,ST-1227,2024-05-09 23:45:26
10,1966. 한마을아파트 정문상가,21,210,37.49649811,126.86309814,ST-1228,2024-05-09 23:45:26
10,1967. 참새공원(백곡경노당),14,140,37.50513840,126.84433746,ST-1229,2024-05-09 23:45:26
7,1968. 동인오피스텔 건너편 소공원,9,129,37.49848175,126.84750366,ST-1230,2024-05-09 23:45:26
10,1969. 궁동생태공원,5,50,37.50190353,126.82896423,ST-1231,2024-05-09 23:45:26
10,1971. 오정초교 앞 보도육교,3,30,37.49072266,126.82639313,ST-1233,2024-05-09 23:45:26
10,1973. 오리로와 서해안도로 교차로 앞,2,20,37.48859787,126.83649445,ST-1235,2024-05-09 23:45:26
9,1974. 신도림2차e편한세상아파트 203동 앞,2,22,37.50518036,126.88253784,ST-1236,2024-05-09 23:45:26
10,1975. 대림역 1번 출입구 밑,0,0,37.49256516,126.89475250,ST-1237,2024-05-09 23:45:26
10,1976. 남구로역 5번 출입구 앞,18,180,37.48567963,126.88670349,ST-1238,2024-05-09 23:45:26
15,1977. 천왕역 1번 출입구 앞,0,0,37.48620987,126.83882141,ST-1239,2024-05-09 23:45:26
10,1981. 천왕지구삼거리 앞,25,250,37.47943115,126.84269714,ST-1243,2024-05-09 23:45:26
10,1983. 구로동롯데아파트,15,150,37.50254822,126.88388062,ST-1273,2024-05-09 23:45:26
10,1984. 구로구청,13,130,37.49526596,126.88847351,ST-1274,2024-05-09 23:45:26
20,1985. 구로도서관,6,30,37.49851608,126.89199066,ST-1275,2024-05-09 23:45:26
15,1986. 태평양물산,0,0,37.48485947,126.89518738,ST-1521,2024-05-09 23:45:26
15,1987. 개봉아이파크아파트 앞,29,193,37.49034119,126.86093140,ST-1522,2024-05-09 23:45:26
